{ "results" : [ { "name" : "Grupamento de Operacoes Aereas Barra da Tijuca", "description" : { "text" : "Telefone:3399-7886" }, "geoResult" : { "address" : "Avenida Ayrton Senna, 2.541 - Rua B - Hangar 42 - Aeroporto de Jacarepagu\u00e1", "point" : { "lng" : -43.370469, "lat" : -22.987666 } } }, { "name" : "2\u00ba Grupamento Maritimo Barra da Tijuca", "description" : { "text" : "Telefone:2493-1454 \/ 2493-03" }, "geoResult" : { "address" : "Avenida L\u00facio Costa, s\/n", "point" : { "lng" : -43.304289, "lat" : -23.015065 } } }, { "name" : "1\u00ba Grupamento de Socorro Florestal e Meio Ambiente", "description" : { "text" : "Telefone:2287-2121 \/ 2287-679" }, "geoResult" : { "address" : "Rua Alto da Boa Vista, 196", "point" : { "lng" : -43.277851, "lat" : -22.966091 } } }, { "name" : "Corpo de Bombeiros Barra de Guaratiba", "description" : { "text" : "Telefone:2410-8044" }, "geoResult" : { "address" : "Estrada Barra de Guaratiba, 9.748", "point" : { "lng" : -43.540884, "lat" : -23.005739 } } }, { "name" : "Corpo de Bombeiros Recreio dos Bandeirantes", "description" : { "text" : "Telefone:3399-7898" }, "geoResult" : { "address" : "Avenida das Am\u00e9ricas, s\/n", "point" : { "lng" : -43.436763, "lat" : -23.006404 } } }, { "name" : "13\u00ba Grupamento de Bombeiro Militar Campo Grande", "description" : { "text" : "Telefone:3394-1234" }, "geoResult" : { "address" : "Avenida Ces\u00e1rio de Melo, 3.226", "point" : { "lng" : -43.562777, "lat" : -22.907398 } } }, { "name" : "Corpo de Bombeiros Ramos", "description" : { "text" : "Telefone:2260-1234" }, "geoResult" : { "address" : "Rua Euclides Farias, 139", "point" : { "lng" : -43.264358, "lat" : -22.855653 } } }, { "name" : "Corpo de Bombeiros Paqueta", "description" : { "text" : "Telefone:3397-0300" }, "geoResult" : { "address" : "Praia das Moreninhas, s\/n", "point" : { "lng" : -43.111188, "lat" : -22.754945 } } }, { "name" : "1\u00ba Grupamento de Busca e Salvamento", "description" : { "text" : "Telefone:3325-1234" }, "geoResult" : { "address" : "Avenida Ayrton Senna, 2.001", "point" : { "lng" : -43.366331, "lat" : -22.992857 } } }, { "name" : "Corpo de Bombeiros Benfica", "description" : { "text" : "Telefone:3890-1234" }, "geoResult" : { "address" : "Avenida Dom Helder C\u00e2mara, 9", "point" : { "lng" : -43.240107, "lat" : -22.892283 } } }, { "name" : "Grupamento Tecnico de Suprimento de Agua em Incendios - Caju", "description" : { "text" : "Telefone:2580-1234" }, "geoResult" : { "address" : "Rua Monsenhor Manoel Gomes, s\/n", "point" : { "lng" : -43.219424, "lat" : -22.888166 } } }, { "name" : "8\u00ba Grupamento de Bombeiro Militar - Campinho", "description" : { "text" : "Telefone:3390-1234" }, "geoResult" : { "address" : "Rua Domingos Lopes, 336", "point" : { "lng" : -43.341395, "lat" : -22.880045 } } }, { "name" : "17\u00ba Grupamento de Bombeiro Militar Copacabana", "description" : { "text" : "Telefone:2547-1234" }, "geoResult" : { "address" : "Rua Xavier da Silveira, 120", "point" : { "lng" : -43.193564, "lat" : -22.976058 } } }, { "name" : "Corpo de Bombeiros Ilha do Governador", "description" : { "text" : "Telefone:3393-1234" }, "geoResult" : { "address" : "Estrada do Gale\u00e3o, s\/n", "point" : { "lng" : -43.197553, "lat" : -22.807546 } } }, { "name" : "Corpo de Bombeiros Iraja", "description" : { "text" : "Telefone:3399-6957" }, "geoResult" : { "address" : "Avenida Brasil, 19.001", "point" : { "lng" : -43.336559, "lat" : -22.826092 } } }, { "name" : "12\u00ba Grupamento de Bombeiro Militar Jacarepagua", "description" : { "text" : "Telefone:3392-1234" }, "geoResult" : { "address" : "Rua Henriqueta, 99", "point" : { "lng" : -43.357989, "lat" : -22.919604 } } }, { "name" : "2\u00ba Grupamento de Bombeiro Militar - Meier", "description" : { "text" : "Telefone:2501-1234" }, "geoResult" : { "address" : "Rua Aristides Caire, 56", "point" : { "lng" : -43.278028, "lat" : -22.899625 } } }, { "name" : "Corpo de Bombeiros Penha", "description" : { "text" : "Telefone:2290-1234" }, "geoResult" : { "address" : "Avenida Nossa Senhora da Penha, 25", "point" : { "lng" : -43.279181, "lat" : -22.843471 } } }, { "name" : "Corpo de Bombeiros Praca da Bandeira", "description" : { "text" : "Telefone:2273-1234" }, "geoResult" : { "address" : "Praca da Bandeira, 156", "point" : { "lng" : -43.214254, "lat" : -22.910483 } } }, { "name" : "Corpo de Bombeiros Realengo", "description" : { "text" : "Telefone:3331-1234" }, "geoResult" : { "address" : "Rua General Sezefredo, 449", "point" : { "lng" : -43.434923, "lat" : -22.880015 } } }, { "name" : "Corpo de Bombeiros Santa Teresa", "description" : { "text" : "Telefone:3399-7956" }, "geoResult" : { "address" : "Rua Almirante Alexandrino, 3.596", "point" : { "lng" : -43.204158, "lat" : -22.936552 } } }, { "name" : "1\u00ba Grupamento de Bombeiro Militar - Humaita", "description" : { "text" : "Telefone:2538--1234" }, "geoResult" : { "address" : "Rua Humait\u00e1, 126", "point" : { "lng" : -43.199294, "lat" : -22.957476 } } }, { "name" : "Quartel do Comando Geral do CBMERJ", "description" : { "text" : "Telefone:3399-4069" }, "geoResult" : { "address" : "Pra\u00e7a da Rep\u00fablica, 45", "point" : { "lng" : -43.187284, "lat" : -22.908849 } } }, { "name" : "11\u00ba Grupamento de Bombeiro Militar - Vila Isabel", "description" : { "text" : "Telefone:2569-4326" }, "geoResult" : { "address" : "Rua Oito de Dezembro, 456", "point" : { "lng" : -43.241419, "lat" : -22.910352 } } }, { "name" : "Corpo de Bombeiros Tijuca", "description" : { "text" : "Telefone:2570-8234" }, "geoResult" : { "address" : "Rua Antonio Bas\u00edlio, 610", "point" : { "lng" : -43.239578, "lat" : -22.92839 } } }, { "name" : "Corpo de Bombeiros Gavea", "description" : { "text" : "Telefone:2274-1234" }, "geoResult" : { "address" : "Rua Major Rubens Vaz, 194", "point" : { "lng" : -43.226048, "lat" : -22.972415 } } }, { "name" : "Grupamento de Socorro de Emergencia", "description" : { "text" : "Telefone:2285-6386" }, "geoResult" : { "address" : "Praca S\u00e3o Salvador, 4", "point" : { "lng" : -43.179816, "lat" : -22.933732 } } }, { "name" : "Corpo de Bombeiros Grajau", "description" : { "text" : "Telefone:2576-6234" }, "geoResult" : { "address" : "Rua Marechal Jofre, 80", "point" : { "lng" : -43.265357, "lat" : -22.918691 } } }, { "name" : "Corpo de Bombeiros Parada de Lucas", "description" : { "text" : "Telefone:2485-1234" }, "geoResult" : { "address" : "Avenida Brasil, 13.350", "point" : { "lng" : -43.295531, "lat" : -22.813961 } } }, { "name" : "Corpo de Bombeiros Santa Cruz", "description" : { "text" : "Telefone:3395-1234" }, "geoResult" : { "address" : "Pra\u00e7a Ru\u00e3o, s\/no", "point" : { "lng" : -43.684707, "lat" : -22.914224 } } }, { "name" : "Corpo de Bombeiros Aeroporto Santos Dumont", "description" : { "text" : "Telefone:3814-7421" }, "geoResult" : { "address" : "Praca Senador Salgado Filho, s\/n", "point" : { "lng" : -43.167933, "lat" : -22.911511 } } }, { "name" : "Corpo de Bombeiros Praia de Ramos", "description" : { "text" : "Telefone:2560-3565" }, "geoResult" : { "address" : "Avenida Guanabara, s\/n", "point" : { "lng" : -43.249662, "lat" : -22.841448 } } }, { "name" : "Corpo de Bombeiros Ilha do Fundao", "description" : { "text" : "Telefone:38858062" }, "geoResult" : { "address" : "Avenida Brigadeiro Trompowski, s\/n", "point" : { "lng" : -43.232186, "lat" : -22.840303 } } }, { "name" : "3\u00ba Grupamento Maritimo Copacabana", "description" : { "text" : "Telefone:2287-2121 \/ 2287-679" }, "geoResult" : { "address" : "Praca Eugenio Franco, 2", "point" : { "lng" : -43.187952, "lat" : -22.986166 } } }, { "name" : "Corpo de Bombeiros Maracana", "description" : { "text" : "Telefone:3872-8196" }, "geoResult" : { "address" : "Rua Eurico Rabelo, Port\u00e3o 15 - Est\u00e1dio do Maracan\u00e3", "point" : { "lng" : -43.231091, "lat" : -22.913459 } } }, { "name" : "1\u00ba Grupamento Maritimo Botafogo", "description" : { "text" : "Telefone:2295-8585" }, "geoResult" : { "address" : "Rua Reporter Nestor Moreira, 11", "point" : { "lng" : -43.178659, "lat" : -22.949285 } } }, { "name" : "Corpo de Bombeiros Lagoa", "description" : { "text" : "Telefone:2274-2294" }, "geoResult" : { "address" : "Avenida Borges de Medeiros, 1.444", "point" : { "lng" : -43.217766, "lat" : -22.974327 } } }, { "name" : "Corpo de Bombeiros Distrito Industrial de Santa Cruz", "description" : { "text" : "Telefone:3399-5970" }, "geoResult" : { "address" : "Rua \u00c1tila Temporal, s\/n - Quadra 16", "point" : { "lng" : -43.756872, "lat" : -22.891733 } } } ], "searchParameters" : {} }