{ "results" : [ { "name" : "Cms Gustavo Capanema - Ap 31", "description" : { "text" : "ID_CNES:5476607, Telefone:(21)38856541, Fax:)21)38854561, Email:psfcap31@rio.rj.gov.br", "information_urls" : [ { "url" : "http:\/\/cnes.datasus.gov.br\/Lista_Es_Nome.asp?Vcodigo=5476607" } ] }, "geoResult" : { "point" : { "lng" : -43.237475, "lat" : -22.869006 }, "address" : "Via 1, S\/N, VILA PINHEIROS, cep - 21046035" } }, { "name" : "Cms Dom Helder Camara - Ap 21", "description" : { "text" : "ID_CNES:2269651, Telefone:21-25759880, Fax:21-25759880, Email:pamdhcamara@rio.rj.gov.br", "information_urls" : [ { "url" : "http:\/\/cnes.datasus.gov.br\/Lista_Es_Nome.asp?Vcodigo=2269651" } ] }, "geoResult" : { "point" : { "lng" : -43.187334, "lat" : -22.951798 }, "address" : "Rua Voluntarios Da Patria, 136, cep - 22270010" } }, { "name" : "Cms Maria Augusta Estrella - Ap 22", "description" : { "text" : "ID_CNES:2280272, Telefone:(21)31116100, Fax:(21)31116100, Email:cmsmaestrella@rio.rj.gov.br", "information_urls" : [ { "url" : "http:\/\/cnes.datasus.gov.br\/Lista_Es_Nome.asp?Vcodigo=2280272" } ] }, "geoResult" : { "point" : { "lng" : -43.251278, "lat" : -22.916728 }, "address" : "Rua Visconde de Santa Isabel, 56, cep - 20560121" } }, { "name" : "Hospital Municipal Barata Ribeiro", "description" : { "text" : "ID_CNES:2270242, Telefone:(21)25698146, Fax:(21)22344783, Email:hmbribeiro@rio.rj.gov.br", "information_urls" : [ { "url" : "http:\/\/cnes.datasus.gov.br\/Lista_Es_Nome.asp?Vcodigo=2270242" } ] }, "geoResult" : { "point" : { "lng" : -43.241789, "lat" : -22.899993 }, "address" : "Rua Visconde de Niteroi, 1450, cep - 20943001" } }, { "name" : "Cms Joao Barros Barreto - Ap 21", "description" : { "text" : "ID_CNES:2280795, Telefone:21 32085295, Fax:21 32085614, Email:cmsjbarreto@rio.rj.gov.br", "information_urls" : [ { "url" : "http:\/\/cnes.datasus.gov.br\/Lista_Es_Nome.asp?Vcodigo=2280795" } ] }, "geoResult" : { "point" : { "lng" : -43.187489, "lat" : -22.96711 }, "address" : "Rua Tenreiro Aranha, S\/N, cep - 22031090" } }, { "name" : "Cms Manoel Jose Ferreira - Ap 21", "description" : { "text" : "ID_CNES:2708434, Telefone:(21)22257505, Fax:(21)22256400, Email:cmsmjferreira@pcrj.rj.gov.br", "information_urls" : [ { "url" : "http:\/\/cnes.datasus.gov.br\/Lista_Es_Nome.asp?Vcodigo=2708434" } ] }, "geoResult" : { "point" : { "lng" : -43.177678, "lat" : -22.924709 }, "address" : "Rua Silveira Martins, 161, cep - 22221000" } }, { "name" : "Caps Simao Bacamarte - Ap 53", "description" : { "text" : "ID_CNES:2708396, Telefone:(21)33658775, Fax:(21)33950898, Email:capssbacamarte@rio.rj.gov.br", "information_urls" : [ { "url" : "http:\/\/cnes.datasus.gov.br\/Lista_Es_Nome.asp?Vcodigo=2708396" } ] }, "geoResult" : { "point" : { "lng" : -43.686554, "lat" : -22.913058 }, "address" : "Rua Senador Camara, 224, cep - 23570160" } }, { "name" : "Caps Lima Barreto - Ap 51", "description" : { "text" : "ID_CNES:3018091, Telefone:(21) 3331-8500, Fax: , Email: ", "information_urls" : [ { "url" : "http:\/\/cnes.datasus.gov.br\/Lista_Es_Nome.asp?Vcodigo=3018091" } ] }, "geoResult" : { "point" : { "lng" : -43.459461, "lat" : -22.873312 }, "address" : "Rua Sao Tomas de Aquino, 67, cep - 21870110" } }, { "name" : "Cms Carlos Figueiredo Filho - Ap 22", "description" : { "text" : "ID_CNES:2778696, Telefone:(21)22984175, Fax: , Email:psfcap22@rio.rj.gov.br", "information_urls" : [ { "url" : "http:\/\/cnes.datasus.gov.br\/Lista_Es_Nome.asp?Vcodigo=2778696" } ] }, "geoResult" : { "point" : { "lng" : -43.252993, "lat" : -22.939802 }, "address" : "Rua Sao Miguel, S\/N\u00ba, cep - 20530420" } }, { "name" : "Coordenacao de Area de Planejamento Cap 3.1", "description" : { "text" : "ID_CNES:5476585, Telefone:(21)38683770, Fax:(21)38670580, Email:cap31@rio.rj.gov.br", "information_urls" : [ { "url" : "http:\/\/cnes.datasus.gov.br\/Lista_Es_Nome.asp?Vcodigo=5476585" } ] }, "geoResult" : { "point" : { "lng" : -43.271064, "lat" : -22.840332 }, "address" : "Rua Sao Godofredo, S\/N\u00ba, cep - 21021240" } }, { "name" : "Cf Santa Marta - Ap 21", "description" : { "text" : "ID_CNES:6272053, Telefone: , Fax: , Email: ", "information_urls" : [ { "url" : "http:\/\/cnes.datasus.gov.br\/Lista_Es_Nome.asp?Vcodigo=6272053" } ] }, "geoResult" : { "point" : { "lng" : -43.191338, "lat" : -22.950484 }, "address" : "Rua Sao Clemente, 312, cep - 22260150" } }, { "name" : "Cms Padre Miguel - Ap 51", "description" : { "text" : "ID_CNES:2270455, Telefone:(21)33350532, Fax:(21)33350535, Email:pspmiguel@rio.rj.gov.br", "information_urls" : [ { "url" : "http:\/\/cnes.datasus.gov.br\/Lista_Es_Nome.asp?Vcodigo=2270455" } ] }, "geoResult" : { "point" : { "lng" : -43.450108, "lat" : -22.872309 }, "address" : "Rua Santo Evaldo, S\/N, cep - 21875220" } }, { "name" : "Cf Deolindo Couto - Ap 53", "description" : { "text" : "ID_CNES:6660185, Telefone: , Fax: , Email: ", "information_urls" : [ { "url" : "http:\/\/cnes.datasus.gov.br\/Lista_Es_Nome.asp?Vcodigo=6660185" } ] }, "geoResult" : { "point" : { "lng" : -43.674708, "lat" : -22.919255 }, "address" : "Rua Santo Augurio, 40, PEDRINHA, cep - 23510220" } }, { "name" : "Centro Operacional Regional - Meier", "description" : { "text" : "ID_CNES:6716903, Telefone:21, Fax: , Email: ", "information_urls" : [ { "url" : "http:\/\/cnes.datasus.gov.br\/Lista_Es_Nome.asp?Vcodigo=6716903" } ] }, "geoResult" : { "point" : { "lng" : -43.276493, "lat" : -22.900734 }, "address" : "Rua Santa Fe, 35, PARTE, cep - 20775065" } }, { "name" : "Padi Salgado Filho", "description" : { "text" : "ID_CNES:6694101, Telefone:-21, Fax: , Email:ANALOSITO@IG.COM.BR", "information_urls" : [ { "url" : "http:\/\/cnes.datasus.gov.br\/Lista_Es_Nome.asp?Vcodigo=6694101" } ] }, "geoResult" : { "point" : { "lng" : -43.276493, "lat" : -22.900734 }, "address" : "Rua Asanta Fe, S\/N, ANEXO, cep - 20770000" } }, { "name" : "Hospital Municipal Jurandyr Manfredini", "description" : { "text" : "ID_CNES:2273381, Telefone:(21)34128315, Fax:(21)34128315, Email:hmjmanfredini@pcrj.rj.gov.br", "information_urls" : [ { "url" : "http:\/\/cnes.datasus.gov.br\/Lista_Es_Nome.asp?Vcodigo=2273381" } ] }, "geoResult" : { "point" : { "lng" : -43.389716, "lat" : -22.936958 }, "address" : "Rua Sampaio Correia, SN, cep - 22713560" } }, { "name" : "Centro de Operacoes do Rj", "description" : { "text" : "ID_CNES:6699812, Telefone:21 2976-4531, Fax: , Email: ", "information_urls" : [ { "url" : "http:\/\/cnes.datasus.gov.br\/Lista_Es_Nome.asp?Vcodigo=6699812" } ] }, "geoResult" : { "point" : { "lng" : -43.203989, "lat" : -22.911414 }, "address" : "Rua Rodrigues dos Santos, S\/N, cep - 20211110" } }, { "name" : "Cmr Eng Dentro - Ap 32", "description" : { "text" : "ID_CNES:2708159, Telefone:(21)3111-7350, Fax:(21)3111-7352, Email:cmred@rio.rj.gov.br", "information_urls" : [ { "url" : "http:\/\/cnes.datasus.gov.br\/Lista_Es_Nome.asp?Vcodigo=2708159" } ] }, "geoResult" : { "point" : { "lng" : -43.300953, "lat" : -22.902145 }, "address" : "Rua Ramiro Magalhaes, 521, A, cep - 20730460" } }, { "name" : "Instituto Munic de Assit A Saude Nise Da Silveira", "description" : { "text" : "ID_CNES:2280728, Telefone:(21)31117426, Fax:(21)31117427, Email:nisedasilveira@pcrj.rj.gov.br", "information_urls" : [ { "url" : "http:\/\/cnes.datasus.gov.br\/Lista_Es_Nome.asp?Vcodigo=2280728" } ] }, "geoResult" : { "point" : { "lng" : -43.300953, "lat" : -22.902145 }, "address" : "Rua Ramiro Magalhaes, 521, cep - 20730460" } }, { "name" : "Coordenadoria de Area de Planejamento Cap 5.2", "description" : { "text" : "ID_CNES:5621720, Telefone:21 24131000, Fax:21 24135660, Email:cap52@rio.rj.gov.br", "information_urls" : [ { "url" : "http:\/\/cnes.datasus.gov.br\/Lista_Es_Nome.asp?Vcodigo=5621720" } ] }, "geoResult" : { "point" : { "lng" : -43.564135, "lat" : -22.909578 }, "address" : "Rua Professor Goncalves, 41, cep - 23045055" } }, { "name" : "Cms Professor Antenor Nascentes - Ap 32", "description" : { "text" : "ID_CNES:6033121, Telefone:22817663, Fax: , Email:cap32@rio.rj.gov.br", "information_urls" : [ { "url" : "http:\/\/cnes.datasus.gov.br\/Lista_Es_Nome.asp?Vcodigo=6033121" } ] }, "geoResult" : { "point" : { "lng" : -43.275473, "lat" : -22.905185 }, "address" : "Rua Professor Antenor Nascentes, 125, cep - 21710150" } }, { "name" : "Cf Enfermeiro Marcos Valadao - Ap 33", "description" : { "text" : "ID_CNES:6029965, Telefone:24712122, Fax: , Email: ", "information_urls" : [ { "url" : "http:\/\/cnes.datasus.gov.br\/Lista_Es_Nome.asp?Vcodigo=6029965" } ] }, "geoResult" : { "point" : { "lng" : -43.348196, "lat" : -22.827 }, "address" : "Avn Pastor Martin Luther King Jr, 10976, cep - 21530000" } }, { "name" : "Cms Alberto Borgerth - Ap 33", "description" : { "text" : "ID_CNES:2269937, Telefone:(21)24502097, Fax:(21)33900165, Email:pamaborgerth@pcrj.rj.gov.br", "information_urls" : [ { "url" : "http:\/\/cnes.datasus.gov.br\/Lista_Es_Nome.asp?Vcodigo=2269937" } ] }, "geoResult" : { "point" : { "lng" : -43.335874, "lat" : -22.876564 }, "address" : "Rua Padre Manso, S\/N, cep - 21310260" } }, { "name" : "Caps Linda Batista - Ap 33", "description" : { "text" : "ID_CNES:5313783, Telefone:21 2475-4917, Fax: , Email: ", "information_urls" : [ { "url" : "http:\/\/cnes.datasus.gov.br\/Lista_Es_Nome.asp?Vcodigo=5313783" } ] }, "geoResult" : { "point" : { "lng" : -43.377737, "lat" : -22.846251 }, "address" : "Rua Orelia, 381, cep - 21675380" } }, { "name" : "Cf Olimpia Esteves - Ap 51", "description" : { "text" : "ID_CNES:6387152, Telefone: , Fax: , Email: ", "information_urls" : [ { "url" : "http:\/\/cnes.datasus.gov.br\/Lista_Es_Nome.asp?Vcodigo=6387152" } ] }, "geoResult" : { "point" : { "lng" : -43.451938, "lat" : -22.893866 }, "address" : "Rua Olimpia Esteves, S\/N, cep - 21775004" } }, { "name" : "Hospital Municipal Jesus", "description" : { "text" : "ID_CNES:2269341, Telefone:(21)22042366, Fax:(21)22845787, Email:hmjesus@rio.rj.gov.br", "information_urls" : [ { "url" : "http:\/\/cnes.datasus.gov.br\/Lista_Es_Nome.asp?Vcodigo=2269341" } ] }, "geoResult" : { "point" : { "lng" : -43.24196, "lat" : -22.912182 }, "address" : "Rua Oito de Dezembro, 717, cep - 20550200" } }, { "name" : "Padi Souza Aguiar", "description" : { "text" : "ID_CNES:6694187, Telefone:-21, Fax: , Email:acfisio@gmail.com", "information_urls" : [ { "url" : "http:\/\/cnes.datasus.gov.br\/Lista_Es_Nome.asp?Vcodigo=6694187" } ] }, "geoResult" : { "point" : { "lng" : -43.190686, "lat" : -22.908563 }, "address" : "Rua Moncorvo Filho, 10, ANEXO, cep - 20211350" } }, { "name" : "Cms Dr Nascimento Gurgel - Ap 33", "description" : { "text" : "ID_CNES:2296586, Telefone:(21)24070430, Fax:(21)24070402, Email:psngurgel@rio.rj.gov.br", "information_urls" : [ { "url" : "http:\/\/cnes.datasus.gov.br\/Lista_Es_Nome.asp?Vcodigo=2296586" } ] }, "geoResult" : { "point" : { "lng" : -43.352866, "lat" : -22.804692 }, "address" : "Rua Mercurio, S\/N, cep - 21532290" } }, { "name" : "Hospital Municipal Miguel Couto", "description" : { "text" : "ID_CNES:2270269, Telefone:3111-3712, Fax:3111-3710, Email:hmmcouto@rio.rj.gov.br", "information_urls" : [ { "url" : "http:\/\/cnes.datasus.gov.br\/Lista_Es_Nome.asp?Vcodigo=2270269" } ] }, "geoResult" : { "point" : { "lng" : -43.223337, "lat" : -22.977197 }, "address" : "Rua Mario Ribeiro, 117, cep - 22430160" } }, { "name" : "Cms Dr Jose Breves dos Santos - Ap 31", "description" : { "text" : "ID_CNES:2269902, Telefone:24853640, Fax:24854135, Email:psjsantos@smsdc.rio.rj.gov.br", "information_urls" : [ { "url" : "http:\/\/cnes.datasus.gov.br\/Lista_Es_Nome.asp?Vcodigo=2269902" } ] }, "geoResult" : { "point" : { "lng" : -43.289151, "lat" : -22.81665 }, "address" : "Rua Mar Grande, 10, CIDADE ALTA, cep - 21010290" } }, { "name" : "Cms Manguinhos - Ap 31", "description" : { "text" : "ID_CNES:5456967, Telefone:(21)25982764, Fax:(21)25620766, Email:cmsmanguinhos@gmail.com", "information_urls" : [ { "url" : "http:\/\/cnes.datasus.gov.br\/Lista_Es_Nome.asp?Vcodigo=5456967" } ] }, "geoResult" : { "point" : { "lng" : -43.250368, "lat" : -22.878243 }, "address" : "Rua Leopoldo Bulhoes, 1480, TERREO, cep - 21041210" } }, { "name" : "Cms Jose Paranhos Fontenelle - Ap 31", "description" : { "text" : "ID_CNES:6664164, Telefone:2122705488, Fax: , Email:psfcap31@rio.rj.gov.br", "information_urls" : [ { "url" : "http:\/\/cnes.datasus.gov.br\/Lista_Es_Nome.asp?Vcodigo=6664164" } ] }, "geoResult" : { "point" : { "lng" : -43.271064, "lat" : -22.840332 }, "address" : "Rua Leopoldinha Rego, 700, cep - 21021230" } }, { "name" : "Policlinica Jose Paranhos Fontenelle - Ap 31", "description" : { "text" : "ID_CNES:2296527, Telefone:(21)31116925, Fax:(21)31116920, Email:pfontenelle@rio.rj.gov.br", "information_urls" : [ { "url" : "http:\/\/cnes.datasus.gov.br\/Lista_Es_Nome.asp?Vcodigo=2296527" } ] }, "geoResult" : { "point" : { "lng" : -43.271064, "lat" : -22.840332 }, "address" : "Rua Leopoldina Rego, 700, cep - 21021522" } }, { "name" : "Cms Marcolino Candau - Ap 10", "description" : { "text" : "ID_CNES:2288346, Telefone:(21)2273-2244, Fax:(21)2213-2146, Email:cmsmcandau@smsdc.rio.rj.gov.br", "information_urls" : [ { "url" : "http:\/\/cnes.datasus.gov.br\/Lista_Es_Nome.asp?Vcodigo=2288346" } ] }, "geoResult" : { "point" : { "lng" : -43.200806, "lat" : -22.908592 }, "address" : "Rua Laura de Araujo, 36, cep - 20211170" } }, { "name" : "Cms Bua Boanerges Borges Da Fonseca - Ap 51", "description" : { "text" : "ID_CNES:3416356, Telefone:2131117605, Fax:2134625134, Email:psbua@smsdc.rio.rj.gov.br", "information_urls" : [ { "url" : "http:\/\/cnes.datasus.gov.br\/Lista_Es_Nome.asp?Vcodigo=3416356" } ] }, "geoResult" : { "point" : { "lng" : -43.410569, "lat" : -22.876488 }, "address" : "Rua Laranjeiras do Sul, S\/N\u00ba, cep - 21745350" } }, { "name" : "Cms Alice Toledo Tibirica - Ap 33", "description" : { "text" : "ID_CNES:5879655, Telefone:(21)24712397, Fax:(21)24712397, Email:psatt@rio.rj.gov.br", "information_urls" : [ { "url" : "http:\/\/cnes.datasus.gov.br\/Lista_Es_Nome.asp?Vcodigo=5879655" } ] }, "geoResult" : { "point" : { "lng" : -43.327617, "lat" : -22.830244 }, "address" : "Rua Juriti, S\/N, cep - 21230320" } }, { "name" : "Cms Dr Eduardo Araujo Vilhena Leite - Ap 32", "description" : { "text" : "ID_CNES:2269503, Telefone:21 31116693, Fax:21 31116697, Email:pesvleite@rio.rj.gov.br", "information_urls" : [ { "url" : "http:\/\/cnes.datasus.gov.br\/Lista_Es_Nome.asp?Vcodigo=2269503" } ] }, "geoResult" : { "point" : { "lng" : -43.292859, "lat" : -22.887478 }, "address" : "Rua Jose dos Reis, 951, cep - 20770061" } }, { "name" : "Cms Augusto do Amaral Peixoto - Ap 33", "description" : { "text" : "ID_CNES:2273179, Telefone:(21)30151601, Fax: , Email:paap@pcrj.rio.rj.gov.br", "information_urls" : [ { "url" : "http:\/\/cnes.datasus.gov.br\/Lista_Es_Nome.asp?Vcodigo=2273179" } ] }, "geoResult" : { "point" : { "lng" : -43.377737, "lat" : -22.846251 }, "address" : "Rua Jorn Hermano Requiao, 447, cep - 21670360" } }, { "name" : "Cms Dr Oswaldo Vilella - Ap 52", "description" : { "text" : "ID_CNES:2269546, Telefone:(21)34072840, Fax:(21)34072799, Email:psovillela@rio.rj.gov.br", "information_urls" : [ { "url" : "http:\/\/cnes.datasus.gov.br\/Lista_Es_Nome.asp?Vcodigo=2269546" } ] }, "geoResult" : { "point" : { "lng" : -43.557835, "lat" : -22.874754 }, "address" : "Rua Jomar Mendes, S\/N, cep - 23095150" } }, { "name" : "Cms Maria Cristina Roma Paugartten - Ap 31", "description" : { "text" : "ID_CNES:2295032, Telefone:(21)22709846, Fax:(21)22709846, Email:mpaugartten@rio.rj.gov.br", "information_urls" : [ { "url" : "http:\/\/cnes.datasus.gov.br\/Lista_Es_Nome.asp?Vcodigo=2295032" } ] }, "geoResult" : { "point" : { "lng" : -43.251795, "lat" : -22.851708 }, "address" : "Rua Joaquim Gomes, S\/N, cep - 21040060" } }, { "name" : "Cf Dona Zica - Ap 10", "description" : { "text" : "ID_CNES:6023975, Telefone:3278-2302, Fax: , Email:elisiene.psfdonazica@yahoo.com", "information_urls" : [ { "url" : "http:\/\/cnes.datasus.gov.br\/Lista_Es_Nome.asp?Vcodigo=6023975" } ] }, "geoResult" : { "point" : { "lng" : -43.241789, "lat" : -22.899993 }, "address" : "Rua Joao Rodrigues, 43, cep - 20960010" } }, { "name" : "Cms Novo Palmares - Ap 40", "description" : { "text" : "ID_CNES:5465877, Telefone:24426735, Fax: , Email:psfcap40@rio.rj.gov.br", "information_urls" : [ { "url" : "http:\/\/cnes.datasus.gov.br\/Lista_Es_Nome.asp?Vcodigo=5465877" } ] }, "geoResult" : { "point" : { "lng" : -43.460677, "lat" : -22.989493 }, "address" : "Rua Jacaranda, 16, AC EST BAND 13907, cep - 22783117" } }, { "name" : "Cms Nova Holanda - Ap 31", "description" : { "text" : "ID_CNES:5476801, Telefone:(21)31059582, Fax:(21)31053392, Email:usfnovaholanda@vivacomunidade.org.br", "information_urls" : [ { "url" : "http:\/\/cnes.datasus.gov.br\/Lista_Es_Nome.asp?Vcodigo=5476801" } ] }, "geoResult" : { "point" : { "lng" : -43.240206, "lat" : -22.853287 }, "address" : "Rua Ivanildo Alves, S\/N\u00b0, cep - 21043230" } }, { "name" : "Cms Esperanca - Ap 31", "description" : { "text" : "ID_CNES:3784908, Telefone:2131055695, Fax: , Email:psfesperanca@rio.rj.gov.br", "information_urls" : [ { "url" : "http:\/\/cnes.datasus.gov.br\/Lista_Es_Nome.asp?Vcodigo=3784908" } ] }, "geoResult" : { "point" : { "lng" : -43.273252, "lat" : -22.85336 }, "address" : "Rua Itajoa, 258, COMPLEXO DO ALEMAO, cep - 21073350" } }, { "name" : "Cms Turano - Ap 22", "description" : { "text" : "ID_CNES:6028233, Telefone: , Fax: , Email:psfcap22@rio.rj.gov.br", "information_urls" : [ { "url" : "http:\/\/cnes.datasus.gov.br\/Lista_Es_Nome.asp?Vcodigo=6028233" } ] }, "geoResult" : { "point" : { "lng" : -43.213397, "lat" : -22.927034 }, "address" : "Rua Infante de Sagres, 284, cep - 20261160" } }, { "name" : "Cms Emydio Cabral - Ap53", "description" : { "text" : "ID_CNES:2273586, Telefone:(21)334275844, Fax:(21)24096551, Email:psecabral@rioj.rj.gov.br", "information_urls" : [ { "url" : "http:\/\/cnes.datasus.gov.br\/Lista_Es_Nome.asp?Vcodigo=2273586" } ] }, "geoResult" : { "point" : { "lng" : -43.624536, "lat" : -22.923488 }, "address" : "Rua Ieda Santos Delgado, 3, CONJUNTO GOUVEIAS, cep - 23587320" } }, { "name" : "Cms Dr Ruy Da Costa Leite - Ap53", "description" : { "text" : "ID_CNES:2295245, Telefone:(21)33950909, Fax:(21)33953020, Email:psrcleite@rio.rj.gov.br", "information_urls" : [ { "url" : "http:\/\/cnes.datasus.gov.br\/Lista_Es_Nome.asp?Vcodigo=2295245" } ] }, "geoResult" : { "point" : { "lng" : -43.66975, "lat" : -22.930146 }, "address" : "Rua Ibicoara C Trav Cardoso, S\/N, ROLLAS, cep - 23520120" } }, { "name" : "Capsi Maria Clara Machado - Ap 32", "description" : { "text" : "ID_CNES:5423430, Telefone:31117509, Fax: , Email:capsimariaclara@rio.rj.gov.br", "information_urls" : [ { "url" : "http:\/\/cnes.datasus.gov.br\/Lista_Es_Nome.asp?Vcodigo=5423430" } ] }, "geoResult" : { "point" : { "lng" : -43.308353, "lat" : -22.891784 }, "address" : "Rua Gomes Serpa, 49, cep - 20740200" } }, { "name" : "Hospital Municipal Rocha Maia", "description" : { "text" : "ID_CNES:2273489, Telefone:21-22952295, Fax:21-2543-1608, Email:hmrmaia@rio.rj.gov.br", "information_urls" : [ { "url" : "http:\/\/cnes.datasus.gov.br\/Lista_Es_Nome.asp?Vcodigo=2273489" } ] }, "geoResult" : { "point" : { "lng" : -43.175041, "lat" : -22.95219 }, "address" : "Rua General Severiano, 91, cep - 22290040" } }, { "name" : "Cms Dr Garfield de Almeida - Ap 52", "description" : { "text" : "ID_CNES:2269511, Telefone:(21) 33940860, Fax:(21) 3405-1232, Email:psgalmeida@rio.rj.gov.br", "information_urls" : [ { "url" : "http:\/\/cnes.datasus.gov.br\/Lista_Es_Nome.asp?Vcodigo=2269511" } ] }, "geoResult" : { "point" : { "lng" : -43.518015, "lat" : -22.922629 }, "address" : "Rua General Paulo de Oliveira, 226, cep - 23017520" } }, { "name" : "Nucleo de Saude do Trabalhador Nusat 2", "description" : { "text" : "ID_CNES:5483115, Telefone:22214269, Fax: , Email:gtrabalhador@rio.rj.gov.br", "information_urls" : [ { "url" : "http:\/\/cnes.datasus.gov.br\/Lista_Es_Nome.asp?Vcodigo=5483115" } ] }, "geoResult" : { "point" : { "lng" : -43.224945, "lat" : -22.913216 }, "address" : "Rua General Canabarro, 345, cep - 20271205" } }, { "name" : "Cmr Oscar Clark - Ap 22", "description" : { "text" : "ID_CNES:2295326, Telefone:22841849, Fax:22841849, Email:ioc@rio.rj.gov.br", "information_urls" : [ { "url" : "http:\/\/cnes.datasus.gov.br\/Lista_Es_Nome.asp?Vcodigo=2295326" } ] }, "geoResult" : { "point" : { "lng" : -43.224945, "lat" : -22.913216 }, "address" : "Rua General Canabarro, 345, cep - 20271210" } }, { "name" : "Centro Operacional Regional - Centro", "description" : { "text" : "ID_CNES:6716911, Telefone:21, Fax: , Email: ", "information_urls" : [ { "url" : "http:\/\/cnes.datasus.gov.br\/Lista_Es_Nome.asp?Vcodigo=6716911" } ] }, "geoResult" : { "point" : { "lng" : -43.190686, "lat" : -22.908563 }, "address" : "Rua Frei Caneca, 50, PARTE, cep - 20211040" } }, { "name" : "Cms Belizario Penna - Ap 52", "description" : { "text" : "ID_CNES:2269554, Telefone:(21)33943158, Fax:(21)33943862, Email:cmsbpenna@rio.rj.gov.br", "information_urls" : [ { "url" : "http:\/\/cnes.datasus.gov.br\/Lista_Es_Nome.asp?Vcodigo=2269554" } ] }, "geoResult" : { "point" : { "lng" : -43.568929, "lat" : -22.897302 }, "address" : "Rua Franklin, 29, cep - 23080360" } }, { "name" : "Cms Jardim Anapolis - Ap 52", "description" : { "text" : "ID_CNES:3567559, Telefone:(21)24186962, Fax:(21)33167388, Email:psfcap52@rio.rj.gov.br", "information_urls" : [ { "url" : "http:\/\/cnes.datasus.gov.br\/Lista_Es_Nome.asp?Vcodigo=3567559" } ] }, "geoResult" : { "point" : { "lng" : -43.611181, "lat" : -22.912141 }, "address" : "Rua Franca Leite, 126, cep - 23059380" } }, { "name" : "Cms Dr Adao Pereira Nunes - Ap 52", "description" : { "text" : "ID_CNES:2270323, Telefone:(21)24096691, Fax:(21)24096691, Email:psapnunes@pcrj.rj.gov.br", "information_urls" : [ { "url" : "http:\/\/cnes.datasus.gov.br\/Lista_Es_Nome.asp?Vcodigo=2270323" } ] }, "geoResult" : { "point" : { "lng" : -43.601225, "lat" : -22.923361 }, "address" : "Rua Florestal, S\/N, cep - 23056060" } }, { "name" : "Caps Fernando Diniz - Ap 31", "description" : { "text" : "ID_CNES:5240832, Telefone:21-25903892, Fax: , Email:capsfdiniz@rio.rj.gov.br", "information_urls" : [ { "url" : "http:\/\/cnes.datasus.gov.br\/Lista_Es_Nome.asp?Vcodigo=5240832" } ] }, "geoResult" : { "point" : { "lng" : -43.260682, "lat" : -22.838729 }, "address" : "Rua Filomena Nunes, 299, cep - 21021380" } }, { "name" : "Cms Mario Olinto de Oliveira - Ap 33", "description" : { "text" : "ID_CNES:2708205, Telefone:3272-0011, Fax:32720092, Email:psmooliveira@rio.rj.gov.br", "information_urls" : [ { "url" : "http:\/\/cnes.datasus.gov.br\/Lista_Es_Nome.asp?Vcodigo=2708205" } ] }, "geoResult" : { "point" : { "lng" : -43.327098, "lat" : -22.884437 }, "address" : "Rua Ferraz, 2, cep - 21311060" } }, { "name" : "Cms Ariadne Lopes de Menezes - Ap 32", "description" : { "text" : "ID_CNES:2273225, Telefone:(21)22697745, Fax:(21)22691148, Email:cmsalmenezes@rio.rj.gov.br", "information_urls" : [ { "url" : "http:\/\/cnes.datasus.gov.br\/Lista_Es_Nome.asp?Vcodigo=2273225" } ] }, "geoResult" : { "point" : { "lng" : -43.296393, "lat" : -22.868411 }, "address" : "Rua Eng Carlos Goncalves Penna, S\/N, cep - 20761330" } }, { "name" : "Cms Cohab - Ap 51", "description" : { "text" : "ID_CNES:3820599, Telefone:2134657534, Fax: , Email: ", "information_urls" : [ { "url" : "http:\/\/cnes.datasus.gov.br\/Lista_Es_Nome.asp?Vcodigo=3820599" } ] }, "geoResult" : { "point" : { "lng" : -43.42728, "lat" : -22.881649 }, "address" : "Rua Dona Olimpia, 12, cep - 21765020" } }, { "name" : "Cf Isabel dos Santos - Ap 32", "description" : { "text" : "ID_CNES:6688152, Telefone: , Fax: , Email:cap32@rio.rj.gov.br", "information_urls" : [ { "url" : "http:\/\/cnes.datasus.gov.br\/Lista_Es_Nome.asp?Vcodigo=6688152" } ] }, "geoResult" : { "point" : { "lng" : -43.263817, "lat" : -22.899296 }, "address" : "Rua Dois de Maio, 220, cep - 20961160" } }, { "name" : "Caps Ad Raul Seixas - Ap 32", "description" : { "text" : "ID_CNES:5413605, Telefone:(21) 3111-7512, Fax:(21) 3111-7507, Email:jcaramore@terra.com.br", "information_urls" : [ { "url" : "http:\/\/cnes.datasus.gov.br\/Lista_Es_Nome.asp?Vcodigo=5413605" } ] }, "geoResult" : { "point" : { "lng" : -43.300953, "lat" : -22.902145 }, "address" : "Rua Dois de Fevereiro, 785, A, cep - 20730451" } }, { "name" : "Cms Lapa - Ap 10", "description" : { "text" : "ID_CNES:5621801, Telefone:32316026, Fax:32316031, Email:levymarcia@uol.com.br", "information_urls" : [ { "url" : "http:\/\/cnes.datasus.gov.br\/Lista_Es_Nome.asp?Vcodigo=5621801" } ] }, "geoResult" : { "point" : { "lng" : -43.181412, "lat" : -22.914457 }, "address" : "Rua do Riachuelo, 43, cep - 20230010" } }, { "name" : "Cms Dr Pedro Nava - Ap 52", "description" : { "text" : "ID_CNES:2270641, Telefone:(21)31558419, Fax: , Email:pspnava@rio.rj.gov.br", "information_urls" : [ { "url" : "http:\/\/cnes.datasus.gov.br\/Lista_Es_Nome.asp?Vcodigo=2270641" } ] }, "geoResult" : { "point" : { "lng" : -43.540893, "lat" : -22.853967 }, "address" : "Rua do Pernambucano, S\/N, cep - 23095090" } }, { "name" : "Cf Emygdio Alves Costa Filho - Ap 32", "description" : { "text" : "ID_CNES:6742130, Telefone: , Fax: , Email: ", "information_urls" : [ { "url" : "http:\/\/cnes.datasus.gov.br\/Lista_Es_Nome.asp?Vcodigo=6742130" } ] }, "geoResult" : { "point" : { "lng" : -43.287877, "lat" : -22.880669 }, "address" : "Rua do Lazer, 153, cep - 20760230" } }, { "name" : "Subsecr de Vig Fiscal Sanit e Controle de Zoo", "description" : { "text" : "ID_CNES:3612503, Telefone:(21)22423105, Fax:(21)22423105, Email:npdivisario@rio.rj.gov.br", "information_urls" : [ { "url" : "http:\/\/cnes.datasus.gov.br\/Lista_Es_Nome.asp?Vcodigo=3612503" } ] }, "geoResult" : { "point" : { "lng" : -43.181412, "lat" : -22.914457 }, "address" : "Rua do Lavradio, 180, 8 ANDAR, cep - 20230070" } }, { "name" : "Capsi Pequeno Hans - Ap 51", "description" : { "text" : "ID_CNES:2708418, Telefone:33553887, Fax:33553887, Email:capsiphans@rio.rj.gov.br", "information_urls" : [ { "url" : "http:\/\/cnes.datasus.gov.br\/Lista_Es_Nome.asp?Vcodigo=2708418" } ] }, "geoResult" : { "point" : { "lng" : -43.38444, "lat" : -22.887785 }, "address" : "Rua Dirceu, 42, FUNDOS, cep - 21740440" } }, { "name" : "Cms Sylvio Frederico Brauner - Ap 33", "description" : { "text" : "ID_CNES:2269627, Telefone: , Fax: , Email:psfcap33@rio.rj.gov.br", "information_urls" : [ { "url" : "http:\/\/cnes.datasus.gov.br\/Lista_Es_Nome.asp?Vcodigo=2269627" } ] }, "geoResult" : { "point" : { "lng" : -43.360325, "lat" : -22.82452 }, "address" : "Rua Darwin Brandao, SN, cep - 21515210" } }, { "name" : "Cms Morro Uniao - Ap 33", "description" : { "text" : "ID_CNES:5541719, Telefone: , Fax: , Email:psfcap33@rio.rj.gov.br", "information_urls" : [ { "url" : "http:\/\/cnes.datasus.gov.br\/Lista_Es_Nome.asp?Vcodigo=5541719" } ] }, "geoResult" : { "point" : { "lng" : -43.348066, "lat" : -22.837985 }, "address" : "Rua Da Jaqueira, S\/N, cep - 21510290" } }, { "name" : "Coordenadoria de Area de Planejamento Cap 2.2", "description" : { "text" : "ID_CNES:5671388, Telefone:1,80E+308, Fax:22384915, Email:cap22@rio.rj.gov.br", "information_urls" : [ { "url" : "http:\/\/cnes.datasus.gov.br\/Lista_Es_Nome.asp?Vcodigo=5671388" } ] }, "geoResult" : { "point" : { "lng" : -43.24287, "lat" : -22.93428 }, "address" : "Rua Conde de Bonfim, 764, cep - 20530002" } }, { "name" : "Cms Dr Decio Amaral Filho - Ap53", "description" : { "text" : "ID_CNES:2708183, Telefone:(21)31581434, Fax:(21)31581556, Email:psdafilho@rio.rj.gov.br", "information_urls" : [ { "url" : "http:\/\/cnes.datasus.gov.br\/Lista_Es_Nome.asp?Vcodigo=2708183" } ] }, "geoResult" : { "point" : { "lng" : -43.65632, "lat" : -22.912317 }, "address" : "Rua Cilon Cunha Brum, S\/N\u00ba, cep - 23573400" } }, { "name" : "Cms Fernando Antonio Braga Lopes Caju - Ap 10", "description" : { "text" : "ID_CNES:2277298, Telefone:(21)25802024, Fax:(21)38606182, Email:flavio.psfcaju@yahoo.com.br", "information_urls" : [ { "url" : "http:\/\/cnes.datasus.gov.br\/Lista_Es_Nome.asp?Vcodigo=2277298" } ] }, "geoResult" : { "point" : { "lng" : -43.224193, "lat" : -22.879339 }, "address" : "Rua Carlos Seidl, 1281, cep - 20931004" } }, { "name" : "Caps Rubens Correa - Ap 33", "description" : { "text" : "ID_CNES:3403238, Telefone:021 38333340, Fax:38333341, Email:capsrubenscorrea@rio.rj.gov.br", "information_urls" : [ { "url" : "http:\/\/cnes.datasus.gov.br\/Lista_Es_Nome.asp?Vcodigo=3403238" } ] }, "geoResult" : { "point" : { "lng" : -43.319471, "lat" : -22.839338 }, "address" : "Rua Capitao Aliatar Martins, 231, cep - 21235500" } }, { "name" : "Cms Clementino Fraga - Ap 33", "description" : { "text" : "ID_CNES:2269295, Telefone:(21)2482-7115, Fax:(21)2482-3132, Email:cmscfraga@rio.rj.gov.br", "information_urls" : [ { "url" : "http:\/\/cnes.datasus.gov.br\/Lista_Es_Nome.asp?Vcodigo=2269295" } ] }, "geoResult" : { "point" : { "lng" : -43.325691, "lat" : -22.849979 }, "address" : "Rua Caicara, 514, cep - 21361630" } }, { "name" : "Hospital Municipal Salgado Filho", "description" : { "text" : "ID_CNES:2296306, Telefone:(21)31114101, Fax:(21)31114108, Email:hmsfilho@rio.rj.gov.br", "information_urls" : [ { "url" : "http:\/\/cnes.datasus.gov.br\/Lista_Es_Nome.asp?Vcodigo=2296306" } ] }, "geoResult" : { "point" : { "lng" : -43.276493, "lat" : -22.900734 }, "address" : "Rua Arquias Cordeiro, 370, cep - 20770000" } }, { "name" : "Cms Fazenda Botafogo - Ap 33", "description" : { "text" : "ID_CNES:5315026, Telefone: , Fax: , Email:psfcap33@rio.rj.gov.br", "information_urls" : [ { "url" : "http:\/\/cnes.datasus.gov.br\/Lista_Es_Nome.asp?Vcodigo=5315026" } ] }, "geoResult" : { "point" : { "lng" : -43.355775, "lat" : -22.826292 }, "address" : "Rua Arnaldo Guinle, S\/N, cep - 21530020" } }, { "name" : "Cms Parque Vila Isabel - Ap 22", "description" : { "text" : "ID_CNES:3785025, Telefone:25760602, Fax: , Email:psfcap22@rio.rj.gov.br", "information_urls" : [ { "url" : "http:\/\/cnes.datasus.gov.br\/Lista_Es_Nome.asp?Vcodigo=3785025" } ] }, "geoResult" : { "point" : { "lng" : -43.261586, "lat" : -22.914208 }, "address" : "Rua Armando de Albuquerque, 115, cep - 20560130" } }, { "name" : "Capsi Joao de Barro - Ap 52", "description" : { "text" : "ID_CNES:6185045, Telefone:3394-2668, Fax: , Email:capsijb@rio.rj.gov.br", "information_urls" : [ { "url" : "http:\/\/cnes.datasus.gov.br\/Lista_Es_Nome.asp?Vcodigo=6185045" } ] }, "geoResult" : { "point" : { "lng" : -43.563363, "lat" : -22.890212 }, "address" : "Rua Aricuri, 267, JARDIM DA LUZ, cep - 23087141" } }, { "name" : "Coordenacao de Area de Planejamento Cap 3.2", "description" : { "text" : "ID_CNES:5677351, Telefone:21 38992936, Fax:21 38993326, Email:cap32@rio.rj.gov.br", "information_urls" : [ { "url" : "http:\/\/cnes.datasus.gov.br\/Lista_Es_Nome.asp?Vcodigo=5677351" } ] }, "geoResult" : { "point" : { "lng" : -43.289633, "lat" : -22.90816 }, "address" : "Rua Aquidaba, 1037, cep - 20720292" } }, { "name" : "Hospital Maternidade Carmela Dutra", "description" : { "text" : "ID_CNES:2280248, Telefone:(21) 31116763, Fax:(21) 31116763, Email:hmatcdutra@rio.rj.gov.br", "information_urls" : [ { "url" : "http:\/\/cnes.datasus.gov.br\/Lista_Es_Nome.asp?Vcodigo=2280248" } ] }, "geoResult" : { "point" : { "lng" : -43.289633, "lat" : -22.90816 }, "address" : "Rua Aquidaba, 1037, cep - 20720190" } }, { "name" : "Policlinica Cesar Pernetta - Ap 32", "description" : { "text" : "ID_CNES:2708167, Telefone:(21)31111831, Fax:(21)31116718, Email:pamcpernetta@rio.rj.gov.br", "information_urls" : [ { "url" : "http:\/\/cnes.datasus.gov.br\/Lista_Es_Nome.asp?Vcodigo=2708167" } ] }, "geoResult" : { "point" : { "lng" : -43.280754, "lat" : -22.901137 }, "address" : "Rua Ana Barbosa, 21, cep - 20735120" } }, { "name" : "Coordenacao de Area de Planejamento - Ap 53", "description" : { "text" : "ID_CNES:5462835, Telefone:(21) 33958805, Fax:(21) 33952378, Email:cap53@rio.rj.gov.br", "information_urls" : [ { "url" : "http:\/\/cnes.datasus.gov.br\/Lista_Es_Nome.asp?Vcodigo=5462835" } ] }, "geoResult" : { "point" : { "lng" : -43.688109, "lat" : -22.919 }, "address" : "Rua Alvaro Alberto, 601, 2\u00ba ANDAR, cep - 23550000" } }, { "name" : "Policlinica Lincoln de Freitas Filho - Ap 53", "description" : { "text" : "ID_CNES:2280191, Telefone:(21)33954129, Fax:(21)33952466, Email:cmslffilho@rio.rj.gov.br", "information_urls" : [ { "url" : "http:\/\/cnes.datasus.gov.br\/Lista_Es_Nome.asp?Vcodigo=2280191" } ] }, "geoResult" : { "point" : { "lng" : -43.688109, "lat" : -22.919 }, "address" : "Rua Alvaro Alberto, 601, cep - 23550040" } }, { "name" : "Cms Fuba - Ap 33", "description" : { "text" : "ID_CNES:5417708, Telefone: , Fax: , Email:psfcap33@rio.rj.gov.br", "information_urls" : [ { "url" : "http:\/\/cnes.datasus.gov.br\/Lista_Es_Nome.asp?Vcodigo=5417708" } ] }, "geoResult" : { "point" : { "lng" : -43.337293, "lat" : -22.88295 }, "address" : "Rua Alberto Silva, S\/N\u00ba, cep - 21310340" } }, { "name" : "Cms Sao Francisco de Assis - Ap 10", "description" : { "text" : "ID_CNES:6023983, Telefone:3184-4449, Fax: , Email: ", "information_urls" : [ { "url" : "http:\/\/cnes.datasus.gov.br\/Lista_Es_Nome.asp?Vcodigo=6023983" } ] }, "geoResult" : { "point" : { "lng" : -43.200806, "lat" : -22.908592 }, "address" : "Rua Afonso Cavalcanti, 20, cep - 20230030" } }, { "name" : "Ps Cass", "description" : { "text" : "ID_CNES:6695566, Telefone:21, Fax: , Email:ana.moraes@smsdc.rio.rj.gov.br", "information_urls" : [ { "url" : "http:\/\/cnes.datasus.gov.br\/Lista_Es_Nome.asp?Vcodigo=6695566" } ] }, "geoResult" : { "point" : { "lng" : -43.203989, "lat" : -22.911414 }, "address" : "Rua Afonso Cavalcante, 455, SUBSOLO 1, cep - 20211901" } }, { "name" : "Secret. Mun. de Saude e Defesa Civil do Rj", "description" : { "text" : "ID_CNES:5462886, Telefone:21 2503-2274, Fax:21 2504-5675, Email:regulacaosusrio@rio.rj.gov.br", "information_urls" : [ { "url" : "http:\/\/cnes.datasus.gov.br\/Lista_Es_Nome.asp?Vcodigo=5462886" } ] }, "geoResult" : { "point" : { "lng" : -43.203989, "lat" : -22.911414 }, "address" : "Rua Afonso Cavalcanti, 455, 7\u00ba ANDAR, cep - 20211901" } }, { "name" : "Hospital Municipal Alvaro Ramos", "description" : { "text" : "ID_CNES:2273187, Telefone:(21)24467335, Fax:(21)24465796, Email:hmaramos@rio.rj.gov.br", "information_urls" : [ { "url" : "http:\/\/cnes.datasus.gov.br\/Lista_Es_Nome.asp?Vcodigo=2273187" } ] }, "geoResult" : { "point" : { "lng" : -43.393234, "lat" : -22.940448 }, "address" : "Rua Adauto Botelho, S\/N, cep - 22713550" } }, { "name" : "Cf Fiorello Raymundo - Ap 51", "description" : { "text" : "ID_CNES:6023916, Telefone: , Fax: , Email:cap51@pcrj.rj.gov.br", "information_urls" : [ { "url" : "http:\/\/cnes.datasus.gov.br\/Lista_Es_Nome.asp?Vcodigo=6023916" } ] }, "geoResult" : { "point" : { "lng" : -43.456515, "lat" : -22.868786 }, "address" : "Rua Acafrao, S\/N, cep - 21870330" } }, { "name" : "Centro Operacional Regional - Iraja", "description" : { "text" : "ID_CNES:6735258, Telefone: , Fax: , Email: ", "information_urls" : [ { "url" : "http:\/\/cnes.datasus.gov.br\/Lista_Es_Nome.asp?Vcodigo=6735258" } ] }, "geoResult" : { "point" : { "lng" : -43.327617, "lat" : -22.830244 }, "address" : "Prc Nossa Senhora Da Apresentacao, 100, cep - 20211040" } }, { "name" : "Cf Lenice M Monteiro Coelho - Ap53", "description" : { "text" : "ID_CNES:6559735, Telefone:34840882, Fax: , Email: ", "information_urls" : [ { "url" : "http:\/\/cnes.datasus.gov.br\/Lista_Es_Nome.asp?Vcodigo=6559735" } ] }, "geoResult" : { "point" : { "lng" : -43.663735, "lat" : -22.908722 }, "address" : "Prc Miguel Pereira dos Santos, S\/N\u00ba, cep - 23575410" } }, { "name" : "Cms Vila Mangueiral \/ Vila Comari - Ap 52", "description" : { "text" : "ID_CNES:6029825, Telefone:33841864, Fax: , Email: ", "information_urls" : [ { "url" : "http:\/\/cnes.datasus.gov.br\/Lista_Es_Nome.asp?Vcodigo=6029825" } ] }, "geoResult" : { "point" : { "lng" : -43.5596, "lat" : -22.903838 }, "address" : "Prc Major de Almeida Costa, 0, S\/N, cep - 23045405" } }, { "name" : "Cms Ana Gonzaga \/ Vila Esperanca - Ap 52", "description" : { "text" : "ID_CNES:3567540, Telefone:(21)24129527, Fax:(21)33167388, Email:psfcap52@pcrj.rj.gov.br", "information_urls" : [ { "url" : "http:\/\/cnes.datasus.gov.br\/Lista_Es_Nome.asp?Vcodigo=3567540" } ] }, "geoResult" : { "point" : { "lng" : -43.595381, "lat" : -22.909288 }, "address" : "Prc Joao Wesley, 7, cep - 23059540" } }, { "name" : "Upa 24h Madureira", "description" : { "text" : "ID_CNES:6661904, Telefone:(21)7808-9094, Fax: , Email: ", "information_urls" : [ { "url" : "http:\/\/cnes.datasus.gov.br\/Lista_Es_Nome.asp?Vcodigo=6661904" } ] }, "geoResult" : { "point" : { "lng" : -43.343795, "lat" : -22.882896 }, "address" : "Prc dos Lavradores, SN, cep - 21310190" } }, { "name" : "Hospital Municipal Souza Aguiar", "description" : { "text" : "ID_CNES:2280183, Telefone:(21)33112600, Fax:(21)31112626, Email:hmsaguiar@pcrj.rj.gov.br", "information_urls" : [ { "url" : "http:\/\/cnes.datasus.gov.br\/Lista_Es_Nome.asp?Vcodigo=2280183" } ] }, "geoResult" : { "point" : { "lng" : -43.190686, "lat" : -22.908563 }, "address" : "Prc Da Republica, 111, cep - 20211350" } }, { "name" : "Hospital Municipal Salles Netto - Ap 10", "description" : { "text" : "ID_CNES:2269953, Telefone:22731162, Fax:22739289, Email:hmsnetto@rio.rj.gov.br", "information_urls" : [ { "url" : "http:\/\/cnes.datasus.gov.br\/Lista_Es_Nome.asp?Vcodigo=2269953" } ] }, "geoResult" : { "point" : { "lng" : -43.210103, "lat" : -22.924121 }, "address" : "Prc Condessa Paulo de Frontin, 52, cep - 20261190" } }, { "name" : "Cms Dr\u00aa Maria Aparecida de Almeida - Ap53", "description" : { "text" : "ID_CNES:2280760, Telefone:(21)32926680, Fax:(21)31557671, Email:psmaalmeida@rio.rj.gov.br", "information_urls" : [ { "url" : "http:\/\/cnes.datasus.gov.br\/Lista_Es_Nome.asp?Vcodigo=2280760" } ] }, "geoResult" : { "point" : { "lng" : -43.638648, "lat" : -22.922251 }, "address" : "Prc Antonio Mattos Areas, S\/N, cep - 23585052" } }, { "name" : "Cf Cantagalo Pavao - Pavaozinho - Ap 21", "description" : { "text" : "ID_CNES:6496989, Telefone:25230563, Fax: , Email: ", "information_urls" : [ { "url" : "http:\/\/cnes.datasus.gov.br\/Lista_Es_Nome.asp?Vcodigo=6496989" } ] }, "geoResult" : { "point" : { "lng" : -43.19533, "lat" : -22.983048 }, "address" : "Lad Saint Roman, 172, cep - 22071060" } }, { "name" : "Cms Chapeu Mangueira Babilonia - Ap 21", "description" : { "text" : "ID_CNES:6632831, Telefone: , Fax: , Email: ", "information_urls" : [ { "url" : "http:\/\/cnes.datasus.gov.br\/Lista_Es_Nome.asp?Vcodigo=6632831" } ] }, "geoResult" : { "point" : { "lng" : -43.169919, "lat" : -22.961558 }, "address" : "Lad Ary Barroso, S\/N, CHAPEU MANGUEIRA BAB, cep - 22010060" } }, { "name" : "Cms Joao Batista Chagas - Ap53", "description" : { "text" : "ID_CNES:2295237, Telefone:(21)24188099, Fax:(21)24188068, Email:psjbchagas@rio.rj.gov.br", "information_urls" : [ { "url" : "http:\/\/cnes.datasus.gov.br\/Lista_Es_Nome.asp?Vcodigo=2295237" } ] }, "geoResult" : { "point" : { "lng" : -43.63451, "lat" : -22.925728 }, "address" : "Etr Santa Eugenia, 1119, JARDIM 7 DE ABRIL, cep - 23585130" } }, { "name" : "Imas Juliano Moreira", "description" : { "text" : "ID_CNES:2269996, Telefone:(21)3432-2358, Fax:(21)3432 2358, Email:imasjmoreira@rio.rj.gov.br", "information_urls" : [ { "url" : "http:\/\/cnes.datasus.gov.br\/Lista_Es_Nome.asp?Vcodigo=2269996" } ] }, "geoResult" : { "point" : { "lng" : -43.394162, "lat" : -22.932876 }, "address" : "Etr Rodrigues Caldas, 3400, cep - 22713375" } }, { "name" : "Cf Dr Hans Jurgen Fernando Dohmann - Ap 52", "description" : { "text" : "ID_CNES:6648371, Telefone: , Fax: , Email:gerentecf.hjfd@gmail.com", "information_urls" : [ { "url" : "http:\/\/cnes.datasus.gov.br\/Lista_Es_Nome.asp?Vcodigo=6648371" } ] }, "geoResult" : { "point" : { "lng" : -43.659687, "lat" : -22.983954 }, "address" : "Etr do Piai, 1128, cep - 23028050" } }, { "name" : "Cms Dr Maia Bittencourt - Ap 52", "description" : { "text" : "ID_CNES:2270315, Telefone:(21)24107091, Fax:(21)24107091, Email:mbittencourt@pcrj.rj.gov.br", "information_urls" : [ { "url" : "http:\/\/cnes.datasus.gov.br\/Lista_Es_Nome.asp?Vcodigo=2270315" } ] }, "geoResult" : { "point" : { "lng" : -43.592433, "lat" : -22.991743 }, "address" : "Etr do Mato Alto, 5609, cep - 23030320" } }, { "name" : "Cf Dr Dalmir de Abreu Salgado - Ap 52", "description" : { "text" : "ID_CNES:6677711, Telefone:25091974, Fax: , Email:gerentecfdas@gmail.com", "information_urls" : [ { "url" : "http:\/\/cnes.datasus.gov.br\/Lista_Es_Nome.asp?Vcodigo=6677711" } ] }, "geoResult" : { "point" : { "lng" : -43.590615, "lat" : -22.941389 }, "address" : "Etr do Magarca, 1831, cep - 23031204" } }, { "name" : "Cms Dr Woodrow Pimentel Pantoja - Ap 52", "description" : { "text" : "ID_CNES:2270285, Telefone:(21)23948360, Fax:(21)31555135, Email:uacpswppantoja@rio.rj.gov.br", "information_urls" : [ { "url" : "http:\/\/cnes.datasus.gov.br\/Lista_Es_Nome.asp?Vcodigo=2270285" } ] }, "geoResult" : { "point" : { "lng" : -43.608696, "lat" : -22.955598 }, "address" : "Etr do Magarca, 4435, cep - 23031202" } }, { "name" : "Cms Itanhanga - Ap 40", "description" : { "text" : "ID_CNES:6784720, Telefone: , Fax: , Email: ", "information_urls" : [ { "url" : "http:\/\/cnes.datasus.gov.br\/Lista_Es_Nome.asp?Vcodigo=6784720" } ] }, "geoResult" : { "point" : { "lng" : -43.311229, "lat" : -22.99067 }, "address" : "Etr do Itanhanga, 270, cep - 22753005" } }, { "name" : "Cf Dr Rogerio Rocco - Ap 52", "description" : { "text" : "ID_CNES:6029841, Telefone: , Fax: , Email:gerentecfsm2@gmail.com", "information_urls" : [ { "url" : "http:\/\/cnes.datasus.gov.br\/Lista_Es_Nome.asp?Vcodigo=6029841" } ] }, "geoResult" : { "point" : { "lng" : -43.606884, "lat" : -22.891249 }, "address" : "Etr do Encanamento, S\/N, cep - 23060000" } }, { "name" : "Cms Aloysio Amancio Da Silva - Ap53", "description" : { "text" : "ID_CNES:2273551, Telefone:(21)33054894, Fax:(21)33954190, Email:psaasilva@rio.rj.gov.br", "information_urls" : [ { "url" : "http:\/\/cnes.datasus.gov.br\/Lista_Es_Nome.asp?Vcodigo=2273551" } ] }, "geoResult" : { "point" : { "lng" : -43.668275, "lat" : -22.8845 }, "address" : "Etr do Curtume, S\/N\u00ba, JESUITAS, cep - 23575270" } }, { "name" : "Cms Professor Carlos Cruz Lima - Ap 33", "description" : { "text" : "ID_CNES:2269309, Telefone:(21)33715804, Fax:(21)33715804, Email:uacpspcclima@rio.rj.gov.br", "information_urls" : [ { "url" : "http:\/\/cnes.datasus.gov.br\/Lista_Es_Nome.asp?Vcodigo=2269309" } ] }, "geoResult" : { "point" : { "lng" : -43.330342, "lat" : -22.834977 }, "address" : "Etr do Colegio, 983, cep - 21235280" } }, { "name" : "Caps Profeta Gentileza - Ap 52", "description" : { "text" : "ID_CNES:3567532, Telefone:(21)34026835, Fax:(21 ) 31557057, Email:capsgentileza@rio.rj.gov.br", "information_urls" : [ { "url" : "http:\/\/cnes.datasus.gov.br\/Lista_Es_Nome.asp?Vcodigo=3567532" } ] }, "geoResult" : { "point" : { "lng" : -43.59466, "lat" : -22.898909 }, "address" : "Etr de Inhoaiba, 849, cep - 23063010" } }, { "name" : "Cms de Curicica - Ap 40", "description" : { "text" : "ID_CNES:3567508, Telefone:2124451636, Fax:212451636, Email: ", "information_urls" : [ { "url" : "http:\/\/cnes.datasus.gov.br\/Lista_Es_Nome.asp?Vcodigo=3567508" } ] }, "geoResult" : { "point" : { "lng" : -43.391286, "lat" : -22.954192 }, "address" : "Etr de Curicica, 2000, cep - 22780194" } }, { "name" : "Sms Rio Maternidade Leila Diniz", "description" : { "text" : "ID_CNES:2296624, Telefone:(21)24414177, Fax:(21)24452264, Email:mldiniz@pcrj.rj.gov.br", "information_urls" : [ { "url" : "http:\/\/cnes.datasus.gov.br\/Lista_Es_Nome.asp?Vcodigo=2296624" } ] }, "geoResult" : { "point" : { "lng" : -43.391286, "lat" : -22.954192 }, "address" : "Etr de Curicica, 2000, CURICICA, cep - 22780150" } }, { "name" : "Hospital Raphael de Paula Souza", "description" : { "text" : "ID_CNES:2273349, Telefone:(21)24451636, Fax:(21)24451636, Email:hmrpsouza@rio.rj.gov.br", "information_urls" : [ { "url" : "http:\/\/cnes.datasus.gov.br\/Lista_Es_Nome.asp?Vcodigo=2273349" } ] }, "geoResult" : { "point" : { "lng" : -43.391286, "lat" : -22.954192 }, "address" : "Etr de Curicica, 2000, CURICICA, cep - 22780194" } }, { "name" : "Cms Vila Canoas - Ap 21", "description" : { "text" : "ID_CNES:3796310, Telefone:(21) 33226302, Fax:(21) 33226302, Email: ", "information_urls" : [ { "url" : "http:\/\/cnes.datasus.gov.br\/Lista_Es_Nome.asp?Vcodigo=3796310" } ] }, "geoResult" : { "point" : { "lng" : -43.26941, "lat" : -22.994919 }, "address" : "Etr das Canoas, 610, cep - 22610210" } }, { "name" : "Cms Dr Albert Sabin - Ap 21", "description" : { "text" : "ID_CNES:2270072, Telefone:(21)33221216, Fax:(21)24204865, Email:psasabin@rio.rj.gov.br", "information_urls" : [ { "url" : "http:\/\/cnes.datasus.gov.br\/Lista_Es_Nome.asp?Vcodigo=2270072" } ] }, "geoResult" : { "point" : { "lng" : -43.24434, "lat" : -22.984899 }, "address" : "Etr Da Gavea, 250, cep - 22451264" } }, { "name" : "Upa 24h Rocinha - Ap 21", "description" : { "text" : "ID_CNES:6507409, Telefone: , Fax: , Email: ", "information_urls" : [ { "url" : "http:\/\/cnes.datasus.gov.br\/Lista_Es_Nome.asp?Vcodigo=6507409" } ] }, "geoResult" : { "point" : { "lng" : -43.252299, "lat" : -22.990415 }, "address" : "Etr Da Gavea, 577, ROCINHA, cep - 22451265" } }, { "name" : "Cms Casa Branca - Ap 22", "description" : { "text" : "ID_CNES:5358612, Telefone: , Fax: , Email:psfcap22@rio.rj.gov.br", "information_urls" : [ { "url" : "http:\/\/cnes.datasus.gov.br\/Lista_Es_Nome.asp?Vcodigo=5358612" } ] }, "geoResult" : { "point" : { "lng" : -43.247343, "lat" : -22.935454 }, "address" : "Etr Da Casa Branca, 200, ACESSO SAO MIGUEL 50, cep - 20530420" } }, { "name" : "Cms Dr Mourao Filho - Ap 52", "description" : { "text" : "ID_CNES:2270307, Telefone:(21)24108158, Fax:(21)24108158, Email:uacpsmfilho@pcrj.rj.gov.br", "information_urls" : [ { "url" : "http:\/\/cnes.datasus.gov.br\/Lista_Es_Nome.asp?Vcodigo=2270307" } ] }, "geoResult" : { "point" : { "lng" : -43.568049, "lat" : -23.065691 }, "address" : "Etr Da Barra de Guaratiba, 9748, cep - 23020240" } }, { "name" : "Upa 24h Costa Barros", "description" : { "text" : "ID_CNES:6680704, Telefone:25086990, Fax: , Email: ", "information_urls" : [ { "url" : "http:\/\/cnes.datasus.gov.br\/Lista_Es_Nome.asp?Vcodigo=6680704" } ] }, "geoResult" : { "point" : { "lng" : -43.367822, "lat" : -22.819119 }, "address" : "Etr Botafogo, SN, cep - 21532200" } }, { "name" : "Hospital Municipal Francisco Da Silva Telles", "description" : { "text" : "ID_CNES:2291266, Telefone:(21)3111-2004, Fax:(21)3371-5540, Email:hmfstelles@rio.rj.gov.br", "information_urls" : [ { "url" : "http:\/\/cnes.datasus.gov.br\/Lista_Es_Nome.asp?Vcodigo=2291266" } ] }, "geoResult" : { "point" : { "lng" : -43.327617, "lat" : -22.830244 }, "address" : "Avn Ubirajara, 25, cep - 21230300" } }, { "name" : "Policlinica Antonio Ribeiro Netto - Ap 10", "description" : { "text" : "ID_CNES:2280299, Telefone:(21)22206286, Fax:(21)22407852, Email:pamarneto@rio.rj.gov.br", "information_urls" : [ { "url" : "http:\/\/cnes.datasus.gov.br\/Lista_Es_Nome.asp?Vcodigo=2280299" } ] }, "geoResult" : { "point" : { "lng" : -43.175701, "lat" : -22.908509 }, "address" : "Avn Treze de Maio, 23, SALA 901, cep - 20031000" } }, { "name" : "Upa 24h Senador Camara", "description" : { "text" : "ID_CNES:6742831, Telefone:21-33312375, Fax:21-34627297, Email:alexbaldace@gmail.com", "information_urls" : [ { "url" : "http:\/\/cnes.datasus.gov.br\/Lista_Es_Nome.asp?Vcodigo=6742831" } ] }, "geoResult" : { "point" : { "lng" : -43.481934, "lat" : -22.881372 }, "address" : "Avn Santa Cruz, 6486, cep - 23010003" } }, { "name" : "Policlinica Manoel Guilherme Da S. Filho - Ap 51", "description" : { "text" : "ID_CNES:2270048, Telefone:(21)24010556, Fax:(21)33324970, Email:pammgf@pcrj.rj.gov.br", "information_urls" : [ { "url" : "http:\/\/cnes.datasus.gov.br\/Lista_Es_Nome.asp?Vcodigo=2270048" } ] }, "geoResult" : { "point" : { "lng" : -43.456515, "lat" : -22.868786 }, "address" : "Avn Ribeiro Dantas, 571, cep - 21870170" } }, { "name" : "Caps Ad Mane Garrincha - Ap 22", "description" : { "text" : "ID_CNES:6044697, Telefone:21 2284-6860, Fax:21 2284-6339, Email:capsadmanegarrincha@smsdc.rio.rj.gov.br", "information_urls" : [ { "url" : "http:\/\/cnes.datasus.gov.br\/Lista_Es_Nome.asp?Vcodigo=6044697" } ] }, "geoResult" : { "point" : { "lng" : -43.234627, "lat" : -22.913803 }, "address" : "Avn Professor Manoel de Abreu, 196, cep - 20550170" } }, { "name" : "Nucleo de Saude do Trabalhador Nusat 1", "description" : { "text" : "ID_CNES:5483107, Telefone:22214269, Fax:22427700, Email:gttrabalhador@rio.rj.gov.br", "information_urls" : [ { "url" : "http:\/\/cnes.datasus.gov.br\/Lista_Es_Nome.asp?Vcodigo=5483107" } ] }, "geoResult" : { "point" : { "lng" : -43.193229, "lat" : -22.905964 }, "address" : "Avn Pres Vargas, 1997, SALA 232, cep - 20211110" } }, { "name" : "Cms Dr Rodolpho Perisse - Ap 21", "description" : { "text" : "ID_CNES:2280205, Telefone:21-38744002, Fax:21-33242910, Email:psrperisse@rio.rj.gov.br", "information_urls" : [ { "url" : "http:\/\/cnes.datasus.gov.br\/Lista_Es_Nome.asp?Vcodigo=2280205" } ] }, "geoResult" : { "point" : { "lng" : -43.239174, "lat" : -22.994428 }, "address" : "Avn Presidente Joao Goulart, 735, cep - 22450250" } }, { "name" : "Casa de Parto David Capistrano Filho", "description" : { "text" : "ID_CNES:3567486, Telefone:(21)34625593, Fax:(21)34625713, Email:casadeparto@rio.rj.gov.br", "information_urls" : [ { "url" : "http:\/\/cnes.datasus.gov.br\/Lista_Es_Nome.asp?Vcodigo=3567486" } ] }, "geoResult" : { "point" : { "lng" : -43.42728, "lat" : -22.881649 }, "address" : "Avn Pontalina, S\/N, cep - 21710120" } }, { "name" : "Hospital Municipal Ronaldo Gazolla Hosp de Acari", "description" : { "text" : "ID_CNES:5717256, Telefone:24719557, Fax:24719557, Email:chefedegabinete@gpstotal.com.br", "information_urls" : [ { "url" : "http:\/\/cnes.datasus.gov.br\/Lista_Es_Nome.asp?Vcodigo=5717256" } ] }, "geoResult" : { "point" : { "lng" : -43.348196, "lat" : -22.827 }, "address" : "Avn Pastor Martin Luther King Jr, 10976, cep - 21531010" } }, { "name" : "Cms Pindaro de Carvalho Rodrigues - Ap 21", "description" : { "text" : "ID_CNES:2288370, Telefone:(21)25112619, Fax:(21)25112619, Email:cmspcrodrigues@rio.rj.gov.br", "information_urls" : [ { "url" : "http:\/\/cnes.datasus.gov.br\/Lista_Es_Nome.asp?Vcodigo=2288370" } ] }, "geoResult" : { "point" : { "lng" : -43.230006, "lat" : -22.977561 }, "address" : "Avn Padre Leonel Franca, S\/N\u00ba, cep - 22451000" } }, { "name" : "Cms Rinaldo de Lamare - Ap 21", "description" : { "text" : "ID_CNES:6506232, Telefone:8800-5056, Fax: , Email: ", "information_urls" : [ { "url" : "http:\/\/cnes.datasus.gov.br\/Lista_Es_Nome.asp?Vcodigo=6506232" } ] }, "geoResult" : { "point" : { "lng" : -43.252299, "lat" : -22.990415 }, "address" : "Avn Niemeyer, 776, cep - 22450221" } }, { "name" : "Coordenacao de Area de Planejamento Cap 3.3", "description" : { "text" : "ID_CNES:5468019, Telefone:21 33900952, Fax:21 24895167, Email:cap33@rio.rj.gov.br", "information_urls" : [ { "url" : "http:\/\/cnes.datasus.gov.br\/Lista_Es_Nome.asp?Vcodigo=5468019" } ] }, "geoResult" : { "point" : { "lng" : -43.335241, "lat" : -22.870597 }, "address" : "Avn Min Edgard Romero, 276, cep - 21360200" } }, { "name" : "Hospital Maternidade Herculano Pinheiro", "description" : { "text" : "ID_CNES:2270390, Telefone:(21)2458-8669, Fax:(21)2458-8625, Email:uishpinheiro@rio.rj.gov.br", "information_urls" : [ { "url" : "http:\/\/cnes.datasus.gov.br\/Lista_Es_Nome.asp?Vcodigo=2270390" } ] }, "geoResult" : { "point" : { "lng" : -43.335241, "lat" : -22.870597 }, "address" : "Avn Min Edgard Romero, 276, cep - 21360201" } }, { "name" : "Cf Cabo Edney Canazaro de Oliveira - Ap 32", "description" : { "text" : "ID_CNES:6762042, Telefone: , Fax: , Email: ", "information_urls" : [ { "url" : "http:\/\/cnes.datasus.gov.br\/Lista_Es_Nome.asp?Vcodigo=6762042" } ] }, "geoResult" : { "point" : { "lng" : -43.260875, "lat" : -22.903441 }, "address" : "Avn Marechal Rondom C\/rua Antunes Garcia, SN, cep - 20950060" } }, { "name" : "Cms Joao Candido - Ap 31", "description" : { "text" : "ID_CNES:3784959, Telefone:2125845122, Fax: , Email:marciliodias@msf.org.br", "information_urls" : [ { "url" : "http:\/\/cnes.datasus.gov.br\/Lista_Es_Nome.asp?Vcodigo=3784959" } ] }, "geoResult" : { "point" : { "lng" : -43.271135, "lat" : -22.822136 }, "address" : "Avn Lobo Junior, 83, cep - 21011065" } }, { "name" : "Upa 24 H Joao Xxiii", "description" : { "text" : "ID_CNES:6598544, Telefone:24165719\/31575411, Fax: , Email:margaridarj@spdm-pab.org.br", "information_urls" : [ { "url" : "http:\/\/cnes.datasus.gov.br\/Lista_Es_Nome.asp?Vcodigo=6598544" } ] }, "geoResult" : { "point" : { "lng" : -43.703697, "lat" : -22.90651 }, "address" : "Avn Joao Xxiii, S\/N, cep - 23570000" } }, { "name" : "Cms Prof Ernani de Paiva Ferreira Braga - Ap53", "description" : { "text" : "ID_CNES:2280310, Telefone:(21)33953412, Fax:(21)33954453, Email:psppfbraga@rio.rj.gov.br", "information_urls" : [ { "url" : "http:\/\/cnes.datasus.gov.br\/Lista_Es_Nome.asp?Vcodigo=2280310" } ] }, "geoResult" : { "point" : { "lng" : -43.710683, "lat" : -22.904445 }, "address" : "Avn Joao Xxiii, S\/N, CONJUNTO LIBERDADE, cep - 23560352" } }, { "name" : "Cms Professor Savio Antunes \/ Antares - Ap53", "description" : { "text" : "ID_CNES:2806320, Telefone: , Fax: , Email:pspsantunes@pcrj.rj.gov.br", "information_urls" : [ { "url" : "http:\/\/cnes.datasus.gov.br\/Lista_Es_Nome.asp?Vcodigo=2806320" } ] }, "geoResult" : { "point" : { "lng" : -43.649926, "lat" : -22.920238 }, "address" : "Avn Herminia Aurelio Sampaio, 105, cep - 23590012" } }, { "name" : "Cms Oswaldo Cruz - Ap 10", "description" : { "text" : "ID_CNES:2277328, Telefone:(21)22248054, Fax:(21)21133985, Email:poc@rio.rj.gov.br", "information_urls" : [ { "url" : "http:\/\/cnes.datasus.gov.br\/Lista_Es_Nome.asp?Vcodigo=2277328" } ] }, "geoResult" : { "point" : { "lng" : -43.189953, "lat" : -22.912451 }, "address" : "Avn Henrique Valadares, 151, cep - 20231031" } }, { "name" : "Cms Harvey Ribeiro de Souza Filho - Ap 4.0", "description" : { "text" : "ID_CNES:2708213, Telefone:(21)34182547, Fax:(21) 34184509, Email:cmshribeiro@rio.rj.gov.br", "information_urls" : [ { "url" : "http:\/\/cnes.datasus.gov.br\/Lista_Es_Nome.asp?Vcodigo=2708213" } ] }, "geoResult" : { "point" : { "lng" : -43.482347, "lat" : -23.019794 }, "address" : "Avn Guiomar Novaes, 133, cep - 22790590" } }, { "name" : "Cms 14 de Julho - Ap 31", "description" : { "text" : "ID_CNES:5476623, Telefone:(21)38849635, Fax:(21)38849635, Email:psfcap31@rio.rj.gov.br", "information_urls" : [ { "url" : "http:\/\/cnes.datasus.gov.br\/Lista_Es_Nome.asp?Vcodigo=5476623" } ] }, "geoResult" : { "point" : { "lng" : -43.252505, "lat" : -22.838757 }, "address" : "Avn Guanabara, S\/N\u00b0, PRAIA DE RAMOS, cep - 21030080" } }, { "name" : "Cms Carmela Dutra - Ap 33", "description" : { "text" : "ID_CNES:2269732, Telefone:(21)33726531, Fax:(21)24754609, Email:pcdutra@rio.rj.gov.br", "information_urls" : [ { "url" : "http:\/\/cnes.datasus.gov.br\/Lista_Es_Nome.asp?Vcodigo=2269732" } ] }, "geoResult" : { "point" : { "lng" : -43.349847, "lat" : -22.852534 }, "address" : "Avn dos Italianos, 480, cep - 21510103" } }, { "name" : "Upa 24h Manguinhos - Ap 31", "description" : { "text" : "ID_CNES:6421482, Telefone:2332-2405, Fax:2332-2410, Email: ", "information_urls" : [ { "url" : "http:\/\/cnes.datasus.gov.br\/Lista_Es_Nome.asp?Vcodigo=6421482" } ] }, "geoResult" : { "point" : { "lng" : -43.252482, "lat" : -22.88442 }, "address" : "Avn Dom Helder Camara, 1390, cep - 20973011" } }, { "name" : "Cms Ernesto Zeferino Tibau Junior - Ap 10", "description" : { "text" : "ID_CNES:2270250, Telefone:(21)38958658, Fax:(21)38958658, Email:cmseztibau@rio.rj.gov.br", "information_urls" : [ { "url" : "http:\/\/cnes.datasus.gov.br\/Lista_Es_Nome.asp?Vcodigo=2270250" } ] }, "geoResult" : { "point" : { "lng" : -43.222805, "lat" : -22.900242 }, "address" : "Avn do Exercito, 1, cep - 20910025" } }, { "name" : "Cms Athayde Jose Da Fonseca - Ap 51", "description" : { "text" : "ID_CNES:2270463, Telefone:(21)3422-1248, Fax:(21)24033776, Email:psajfonseca@rioj.rj.gov.br", "information_urls" : [ { "url" : "http:\/\/cnes.datasus.gov.br\/Lista_Es_Nome.asp?Vcodigo=2270463" } ] }, "geoResult" : { "point" : { "lng" : -43.465125, "lat" : -22.847104 }, "address" : "Avn Dezenove de Abril Rua Roque Barbosa, S\/N, cep - 21863420" } }, { "name" : "Cf Samuel Penha Valle - Ap53", "description" : { "text" : "ID_CNES:6683851, Telefone: , Fax: , Email: ", "information_urls" : [ { "url" : "http:\/\/cnes.datasus.gov.br\/Lista_Es_Nome.asp?Vcodigo=6683851" } ] }, "geoResult" : { "point" : { "lng" : -43.651526, "lat" : -22.926687 }, "address" : "Avn Cesario de Melo Esquina C\/sao Gomario, S\/N\u00ba, cep - 23595040" } }, { "name" : "Centro Operacional Regional - Leblon", "description" : { "text" : "ID_CNES:6716849, Telefone:21 2976-1337, Fax: , Email: ", "information_urls" : [ { "url" : "http:\/\/cnes.datasus.gov.br\/Lista_Es_Nome.asp?Vcodigo=6716849" } ] }, "geoResult" : { "point" : { "lng" : -43.223337, "lat" : -22.977197 }, "address" : "Avn Bartolomeu Mitre, 1108, PARTE, cep - 22431001" } }, { "name" : "Cf Jose Antonio Ciraudo - Ap53", "description" : { "text" : "ID_CNES:6581994, Telefone: , Fax: , Email: ", "information_urls" : [ { "url" : "http:\/\/cnes.datasus.gov.br\/Lista_Es_Nome.asp?Vcodigo=6581994" } ] }, "geoResult" : { "point" : { "lng" : -43.685747, "lat" : -22.93853 }, "address" : "Avn Areia Branca, 1428, LOTE 1, cep - 23550740" } }, { "name" : "Servico Municipal de Reabilitacao Viana do Castelo", "description" : { "text" : "ID_CNES:2270005, Telefone:21 24465796, Fax: , Email:samehmaramos@rio.rj.gov.br", "information_urls" : [ { "url" : "http:\/\/cnes.datasus.gov.br\/Lista_Es_Nome.asp?Vcodigo=2270005" } ] }, "geoResult" : { "point" : { "lng" : -43.393234, "lat" : -22.940448 }, "address" : "Rua Adauto Botelho, S\/N, TAQUARA, cep - 22713550" } }, { "name" : "Central de Regulacao", "description" : { "text" : "ID_CNES:5358922, Telefone:21-25086118, Fax:21-25086118, Email:crregulacao@rio.rj.gov.br", "information_urls" : [ { "url" : "http:\/\/cnes.datasus.gov.br\/Lista_Es_Nome.asp?Vcodigo=5358922" } ] }, "geoResult" : { "point" : { "lng" : -43.174862, "lat" : -22.902178 }, "address" : "Prc Xv, 4, 3\u00ba ANDAR, cep - 20010010" } }, { "name" : "Cms Jose Messias do Carmo - Ap 10", "description" : { "text" : "ID_CNES:2291274, Telefone:21 2518-1991, Fax:(21)22339654, Email: ", "information_urls" : [ { "url" : "http:\/\/cnes.datasus.gov.br\/Lista_Es_Nome.asp?Vcodigo=2291274" } ] }, "geoResult" : { "point" : { "lng" : -43.200071, "lat" : -22.900185 }, "address" : "Rua Waldemar Dutra, 55, cep - 20220780" } }, { "name" : "Cms Manoel Arthur Villaboim - Ap 10", "description" : { "text" : "ID_CNES:2277301, Telefone:(21)33970123, Fax:(21)33970313, Email:uismvillaboim@pcrj.rj.gov.br", "information_urls" : [ { "url" : "http:\/\/cnes.datasus.gov.br\/Lista_Es_Nome.asp?Vcodigo=2277301" } ] }, "geoResult" : { "point" : { "lng" : -43.107833, "lat" : -22.760888 }, "address" : "Prc Bom Jesus, 40, cep - 20397140" } }, { "name" : "Coordenacao de Area de Planejamento Cap 1.0", "description" : { "text" : "ID_CNES:5476321, Telefone:21 22247689, Fax:21 22247823, Email:cap10@rio.rj.gov.br", "information_urls" : [ { "url" : "http:\/\/cnes.datasus.gov.br\/Lista_Es_Nome.asp?Vcodigo=5476321" } ] }, "geoResult" : { "point" : { "lng" : -43.174862, "lat" : -22.902178 }, "address" : "Prc Xv de Novembro, 4, 5 ANDAR, cep - 20010010" } }, { "name" : "Hospital Maternidade Oswaldo Nazareth", "description" : { "text" : "ID_CNES:2273373, Telefone:(21)22214123, Fax:(21)22214123, Email:hmonazareth@rio.rj.gov.br", "information_urls" : [ { "url" : "http:\/\/cnes.datasus.gov.br\/Lista_Es_Nome.asp?Vcodigo=2273373" } ] }, "geoResult" : { "point" : { "lng" : -43.174862, "lat" : -22.902178 }, "address" : "Prc Xv de Novembro, 4, FDS, cep - 20010010" } }, { "name" : "Hospital Maternidade Fernando Magalhaes", "description" : { "text" : "ID_CNES:2270714, Telefone:(21) 25808343, Fax:(21) 25801132, Email:immfmagalhaes@rio.rj.gov.br", "information_urls" : [ { "url" : "http:\/\/cnes.datasus.gov.br\/Lista_Es_Nome.asp?Vcodigo=2270714" } ] }, "geoResult" : { "point" : { "lng" : -43.225391, "lat" : -22.894659 }, "address" : "Rua General Jose Cristino, 87, cep - 20921400" } }, { "name" : "Cms Ernani Agricola - Ap 10", "description" : { "text" : "ID_CNES:2708426, Telefone:(21)22247194, Fax:(21)22247965, Email:cmseagricola@rio.rj.gov.br", "information_urls" : [ { "url" : "http:\/\/cnes.datasus.gov.br\/Lista_Es_Nome.asp?Vcodigo=2708426" } ] }, "geoResult" : { "point" : { "lng" : -43.188794, "lat" : -22.920827 }, "address" : "Rua Constant Jardin, 8, cep - 20241160" } }, { "name" : "Padi Miguel Couto", "description" : { "text" : "ID_CNES:6694330, Telefone:(21) 3111-3855, Fax: , Email: ", "information_urls" : [ { "url" : "http:\/\/cnes.datasus.gov.br\/Lista_Es_Nome.asp?Vcodigo=6694330" } ] }, "geoResult" : { "point" : { "lng" : -43.223337, "lat" : -22.977197 }, "address" : "Rua Mario Ribeiro, 80, ANEXO, cep - 22430160" } }, { "name" : "Coordenacao de Area de Planejamento Cap 2.1", "description" : { "text" : "ID_CNES:5423996, Telefone:21 22950097, Fax:21 22753922, Email:cap21@rio.rj.gov.br", "information_urls" : [ { "url" : "http:\/\/cnes.datasus.gov.br\/Lista_Es_Nome.asp?Vcodigo=5423996" } ] }, "geoResult" : { "point" : { "lng" : -43.175041, "lat" : -22.95219 }, "address" : "Avn Venceslau Bras, 65, FUNDOS, cep - 22290140" } }, { "name" : "Instituto Municipal Philippe Pinel", "description" : { "text" : "ID_CNES:2288362, Telefone:(21)22955095, Fax:(21)22755694, Email:imppinel@smsdc.rio.rj.gov.br", "information_urls" : [ { "url" : "http:\/\/cnes.datasus.gov.br\/Lista_Es_Nome.asp?Vcodigo=2288362" } ] }, "geoResult" : { "point" : { "lng" : -43.175041, "lat" : -22.95219 }, "address" : "Avn Venceslau Bras, 65, cep - 22290140" } }, { "name" : "Cms Heitor Beltrao - Ap 22", "description" : { "text" : "ID_CNES:2269376, Telefone:25706607, Fax:(21)22687352, Email:cmshbeltrao@rio.rj.gov.br", "information_urls" : [ { "url" : "http:\/\/cnes.datasus.gov.br\/Lista_Es_Nome.asp?Vcodigo=2269376" } ] }, "geoResult" : { "point" : { "lng" : -43.232316, "lat" : -22.929025 }, "address" : "Rua Desembargador Isidro, 144, cep - 20521160" } }, { "name" : "Cms Professor Julio Barbosa - Ap 22", "description" : { "text" : "ID_CNES:2280787, Telefone:(21)25700289, Fax:(21)25700289, Email:psjbarbosa@rio.rj.gov.br", "information_urls" : [ { "url" : "http:\/\/cnes.datasus.gov.br\/Lista_Es_Nome.asp?Vcodigo=2280787" } ] }, "geoResult" : { "point" : { "lng" : -43.242754, "lat" : -22.941779 }, "address" : "Rua Castelo Novo, 150, FUNDOS, cep - 20530120" } }, { "name" : "Cms Nicola Albano - Ap 22", "description" : { "text" : "ID_CNES:2280280, Telefone:(21)24922153, Fax:(21)24922153, Email:psnalbano@rio.rj.gov.br", "information_urls" : [ { "url" : "http:\/\/cnes.datasus.gov.br\/Lista_Es_Nome.asp?Vcodigo=2280280" } ] }, "geoResult" : { "point" : { "lng" : -43.277241, "lat" : -22.965529 }, "address" : "Rua Boa Vista, 190, cep - 20531610" } }, { "name" : "Hospital M. de Geriat. e Gerontologia Miguel Pedro", "description" : { "text" : "ID_CNES:2269813, Telefone:(21)31116800, Fax:(21)31116800, Email:iggmpedro@rio.rj.gov.br", "information_urls" : [ { "url" : "http:\/\/cnes.datasus.gov.br\/Lista_Es_Nome.asp?Vcodigo=2269813" } ] }, "geoResult" : { "point" : { "lng" : -43.234627, "lat" : -22.913803 }, "address" : "Blv 28 de Setembro, 109, FUNDOS, cep - 20551030" } }, { "name" : "Cf Maria do Socorro Silva e Souza - Ap 21", "description" : { "text" : "ID_CNES:6503772, Telefone: , Fax: , Email: ", "information_urls" : [ { "url" : "http:\/\/cnes.datasus.gov.br\/Lista_Es_Nome.asp?Vcodigo=6503772" } ] }, "geoResult" : { "point" : { "lng" : -43.252299, "lat" : -22.990415 }, "address" : "Etr Da Gavea, S\/N\u00ba, cep - 22451263" } }, { "name" : "Caps Maria do Socorro Santos - Ap 21", "description" : { "text" : "ID_CNES:6551556, Telefone: , Fax: , Email: ", "information_urls" : [ { "url" : "http:\/\/cnes.datasus.gov.br\/Lista_Es_Nome.asp?Vcodigo=6551556" } ] }, "geoResult" : { "point" : { "lng" : -43.252299, "lat" : -22.990415 }, "address" : "Etr Da Gavea, 520, PARTE, cep - 22451265" } }, { "name" : "Centro Operacional Regional - Botafogo", "description" : { "text" : "ID_CNES:6735282, Telefone: , Fax: , Email: ", "information_urls" : [ { "url" : "http:\/\/cnes.datasus.gov.br\/Lista_Es_Nome.asp?Vcodigo=6735282" } ] }, "geoResult" : { "point" : { "lng" : -43.175041, "lat" : -22.95219 }, "address" : "Avn Venceslau Bras, 50, cep - 20211040" } }, { "name" : "Policlinica Helio Pellegrino - Ap 22", "description" : { "text" : "ID_CNES:2269368, Telefone:(21)22736222, Fax:(21)22731244, Email:pamhpellegrino@rio.rj.gov.br", "information_urls" : [ { "url" : "http:\/\/cnes.datasus.gov.br\/Lista_Es_Nome.asp?Vcodigo=2269368" } ] }, "geoResult" : { "point" : { "lng" : -43.213718, "lat" : -22.911988 }, "address" : "Rua do Matoso, 96, cep - 20270133" } }, { "name" : "Caps Ernesto Nazareth - Ap 31", "description" : { "text" : "ID_CNES:3567494, Telefone:(21)33965602, Fax:(21)33965602, Email:francimmb@uol.com.br", "information_urls" : [ { "url" : "http:\/\/cnes.datasus.gov.br\/Lista_Es_Nome.asp?Vcodigo=3567494" } ] }, "geoResult" : { "point" : { "lng" : -43.174672, "lat" : -22.794032 }, "address" : "Avn Paranapuan, 435, CASA, cep - 21910010" } }, { "name" : "Caps Iii Joao Ferreira Silva Filho - Ap 31", "description" : { "text" : "ID_CNES:6527027, Telefone: , Fax: , Email: ", "information_urls" : [ { "url" : "http:\/\/cnes.datasus.gov.br\/Lista_Es_Nome.asp?Vcodigo=6527027" } ] }, "geoResult" : { "point" : { "lng" : -43.26793, "lat" : -22.864288 }, "address" : "Etr do Itarare, 951, cep - 21061240" } }, { "name" : "Cf Augusto Boal - Ap 31", "description" : { "text" : "ID_CNES:6023320, Telefone: , Fax: , Email:psfcap31@rio.rj.gov.br", "information_urls" : [ { "url" : "http:\/\/cnes.datasus.gov.br\/Lista_Es_Nome.asp?Vcodigo=6023320" } ] }, "geoResult" : { "point" : { "lng" : -43.24145, "lat" : -22.865203 }, "address" : "Avn Guilherme Maxwell, 107, cep - 21040211" } }, { "name" : "Cf Maria Sebastiana de Oliveir - Ap 31", "description" : { "text" : "ID_CNES:6568491, Telefone: , Fax: , Email: ", "information_urls" : [ { "url" : "http:\/\/cnes.datasus.gov.br\/Lista_Es_Nome.asp?Vcodigo=6568491" } ] }, "geoResult" : { "point" : { "lng" : -43.191592, "lat" : -22.79706 }, "address" : "Avn dos Magisterios, S\/N, PRAIA DA ROSA, cep - 21920455" } }, { "name" : "Cf Rodrigo Yamawaki Aguilar Roig - Ap 31", "description" : { "text" : "ID_CNES:6524486, Telefone:2560-6592, Fax: , Email:psfcap31@rio.rj.gov.br", "information_urls" : [ { "url" : "http:\/\/cnes.datasus.gov.br\/Lista_Es_Nome.asp?Vcodigo=6524486" } ] }, "geoResult" : { "point" : { "lng" : -43.267281, "lat" : -22.858935 }, "address" : "Etr do Itarare, 650, COMPLEXO DO ALEMAO, cep - 21061240" } }, { "name" : "Cf Victor Valla - Ap 31", "description" : { "text" : "ID_CNES:6514022, Telefone:(21)22014476, Fax: , Email:csfvictorvalla@gmail.com", "information_urls" : [ { "url" : "http:\/\/cnes.datasus.gov.br\/Lista_Es_Nome.asp?Vcodigo=6514022" } ] }, "geoResult" : { "point" : { "lng" : -43.252482, "lat" : -22.88442 }, "address" : "Avn Dom Helder Camara, 1390, FUNDOS, cep - 20973011" } }, { "name" : "Cf Zilda Arns - Ap 31", "description" : { "text" : "ID_CNES:3784975, Telefone:84640378, Fax: , Email:cfzildaarns@smsdc.rio.rj.gov.br", "information_urls" : [ { "url" : "http:\/\/cnes.datasus.gov.br\/Lista_Es_Nome.asp?Vcodigo=3784975" } ] }, "geoResult" : { "point" : { "lng" : -43.26793, "lat" : -22.864288 }, "address" : "Etr Itarare, 951, SUBSOLO, cep - 21061240" } }, { "name" : "Cms Americo Veloso - Ap 31", "description" : { "text" : "ID_CNES:2296551, Telefone:(21)25737235, Fax:(21)25737187, Email:cmsaveloso@rio.rj.gov.br", "information_urls" : [ { "url" : "http:\/\/cnes.datasus.gov.br\/Lista_Es_Nome.asp?Vcodigo=2296551" } ] }, "geoResult" : { "point" : { "lng" : -43.249229, "lat" : -22.841611 }, "address" : "Rua Gerson Ferreira, 100, COMPLEXO DA MARE, cep - 21030152" } }, { "name" : "Cms Alemao - Ap 31", "description" : { "text" : "ID_CNES:3784967, Telefone:2184404118, Fax: , Email:psfalemao@rio.rj.gov.br", "information_urls" : [ { "url" : "http:\/\/cnes.datasus.gov.br\/Lista_Es_Nome.asp?Vcodigo=3784967" } ] }, "geoResult" : { "point" : { "lng" : -43.267281, "lat" : -22.858935 }, "address" : "Etr do Itarare, 221, COMPLEXO DO ALEMAO, cep - 21061240" } }, { "name" : "Cms Heitor dos Prazeres - Ap 31", "description" : { "text" : "ID_CNES:6664040, Telefone: , Fax: , Email:psfcap31@rio.rj.gov.br", "information_urls" : [ { "url" : "http:\/\/cnes.datasus.gov.br\/Lista_Es_Nome.asp?Vcodigo=6664040" } ] }, "geoResult" : { "point" : { "lng" : -43.28171, "lat" : -22.822576 }, "address" : "Rua Iguaperiba, 0, BRAS DE PINA, cep - 21012020" } }, { "name" : "Cms Iraci Lopes - Ap 31", "description" : { "text" : "ID_CNES:5457009, Telefone:(21)34486131, Fax: , Email:psfcap31@rio.rj.gov.br", "information_urls" : [ { "url" : "http:\/\/cnes.datasus.gov.br\/Lista_Es_Nome.asp?Vcodigo=5457009" } ] }, "geoResult" : { "point" : { "lng" : -43.303306, "lat" : -22.806606 }, "address" : "Rua Antonio Mendes, 8109, cep - 21010690" } }, { "name" : "Cms Helio Smidthi - Ap 31", "description" : { "text" : "ID_CNES:5476798, Telefone:(21)38819164, Fax: , Email:psfcap31@rio.rj.gov.br", "information_urls" : [ { "url" : "http:\/\/cnes.datasus.gov.br\/Lista_Es_Nome.asp?Vcodigo=5476798" } ] }, "geoResult" : { "point" : { "lng" : -43.240206, "lat" : -22.853287 }, "address" : "Rua Tancredo Neves, S\/N\u00b0, RUBENS VAZ, cep - 21044725" } }, { "name" : "Cms Madre Teresa de Calcuta - Ap 31", "description" : { "text" : "ID_CNES:2273640, Telefone:(21)39754962, Fax:(21)39751293, Email:psmtcalcuta@rio.rj.gov.br", "information_urls" : [ { "url" : "http:\/\/cnes.datasus.gov.br\/Lista_Es_Nome.asp?Vcodigo=2273640" } ] }, "geoResult" : { "point" : { "lng" : -43.185059, "lat" : -22.786303 }, "address" : "Avn Ilha das Enxadas, 100, BANCARIOS, cep - 21910097" } }, { "name" : "Cms Dr Nagib Jorge Farah - Ap 31", "description" : { "text" : "ID_CNES:2296535, Telefone:33577006, Fax:33577018, Email:psnjfarah@rio.rj.gov.br", "information_urls" : [ { "url" : "http:\/\/cnes.datasus.gov.br\/Lista_Es_Nome.asp?Vcodigo=2296535" } ] }, "geoResult" : { "point" : { "lng" : -43.320846, "lat" : -22.806977 }, "address" : "Prc Soldado Michel Cheib, S\/N, PRACA CENTRAL DO JA, cep - 21240780" } }, { "name" : "Cms Necker Pinto - Ap 31", "description" : { "text" : "ID_CNES:2280779, Telefone:(21)33675199, Fax:(21)33675171, Email:cmsnpinto@rio.rj.gov.br", "information_urls" : [ { "url" : "http:\/\/cnes.datasus.gov.br\/Lista_Es_Nome.asp?Vcodigo=2280779" } ] }, "geoResult" : { "point" : { "lng" : -43.176506, "lat" : -22.820341 }, "address" : "Etr Rio Jequia, 428, ZUMBI, cep - 21930007" } }, { "name" : "Cms Parque Royal - Ap 31", "description" : { "text" : "ID_CNES:5467136, Telefone:21-3975-1771, Fax: , Email:psfcap31@rio.rj.gov.br", "information_urls" : [ { "url" : "http:\/\/cnes.datasus.gov.br\/Lista_Es_Nome.asp?Vcodigo=5467136" } ] }, "geoResult" : { "point" : { "lng" : -43.209168, "lat" : -22.794328 }, "address" : "Rua Jornalista Ataide Pires, 25, PARQUE ROYAL, cep - 21931615" } }, { "name" : "Cms Vila do Joao - Ap 31", "description" : { "text" : "ID_CNES:5476844, Telefone:(21)25734996, Fax:(21)25734996, Email:psdcap31@rio.rj.gov.br", "information_urls" : [ { "url" : "http:\/\/cnes.datasus.gov.br\/Lista_Es_Nome.asp?Vcodigo=5476844" } ] }, "geoResult" : { "point" : { "lng" : -43.241455, "lat" : -22.875209 }, "address" : "Rua 17, S\/N\u00b0, VILA DO JOAO, cep - 21043020" } }, { "name" : "Hospital Municipal Nossa Senhora do Loreto", "description" : { "text" : "ID_CNES:2269724, Telefone:(21)33931983\/0610, Fax:(21)33932029, Email:hmnsloreto@pcrj.rj.gov.br", "information_urls" : [ { "url" : "http:\/\/cnes.datasus.gov.br\/Lista_Es_Nome.asp?Vcodigo=2269724" } ] }, "geoResult" : { "point" : { "lng" : -43.226777, "lat" : -22.815643 }, "address" : "Etr do Carico, 26, GALEAO, cep - 21941450" } }, { "name" : "Policlinica Newton Alves Cardozo - Ap 31", "description" : { "text" : "ID_CNES:2270064, Telefone:(21)33964950, Fax:(21)33968022, Email:pamnacardoso@rio.rj.gov.br", "information_urls" : [ { "url" : "http:\/\/cnes.datasus.gov.br\/Lista_Es_Nome.asp?Vcodigo=2270064" } ] }, "geoResult" : { "point" : { "lng" : -43.189202, "lat" : -22.80973 }, "address" : "Rua Dr Antonio Monteiro - Antiga Rua Combu, 191, CACUIA, cep - 21921610" } }, { "name" : "Hospital Municipal Paulino Werneck", "description" : { "text" : "ID_CNES:2270056, Telefone:(21)31117700, Fax:(21)31117706, Email:hmpwerneck@pcrj.rj.gov.br", "information_urls" : [ { "url" : "http:\/\/cnes.datasus.gov.br\/Lista_Es_Nome.asp?Vcodigo=2270056" } ] }, "geoResult" : { "point" : { "lng" : -43.183925, "lat" : -22.809733 }, "address" : "Etr Da Cacuia, 745, cep - 21921001" } }, { "name" : "Cf Felippe Cardoso - Ap 31", "description" : { "text" : "ID_CNES:6664075, Telefone: , Fax: , Email:psfcap31@rio.rj.gov.br", "information_urls" : [ { "url" : "http:\/\/cnes.datasus.gov.br\/Lista_Es_Nome.asp?Vcodigo=6664075" } ] }, "geoResult" : { "point" : { "lng" : -43.277491, "lat" : -22.841364 }, "address" : "Avn Nossa Senhora Da Penha, 42, PENHA, cep - 21070390" } }, { "name" : "Caps Clarice Lispector - Ap 32", "description" : { "text" : "ID_CNES:5346320, Telefone:31117490, Fax:31117411, Email: ", "information_urls" : [ { "url" : "http:\/\/cnes.datasus.gov.br\/Lista_Es_Nome.asp?Vcodigo=5346320" } ] }, "geoResult" : { "point" : { "lng" : -43.300953, "lat" : -22.902145 }, "address" : "Rua Dois de Fevereiro, 785, A, cep - 20730451" } }, { "name" : "Caps Torquato Neto - Ap 32", "description" : { "text" : "ID_CNES:5874408, Telefone:3111-4168, Fax: , Email: ", "information_urls" : [ { "url" : "http:\/\/cnes.datasus.gov.br\/Lista_Es_Nome.asp?Vcodigo=5874408" } ] }, "geoResult" : { "point" : { "lng" : -43.266607, "lat" : -22.886101 }, "address" : "Rua Vereador Jansen Miiller, 329, FUNDOS, cep - 20785240" } }, { "name" : "Centro Operacional Regional - Del Castilho", "description" : { "text" : "ID_CNES:6735266, Telefone: , Fax: , Email: ", "information_urls" : [ { "url" : "http:\/\/cnes.datasus.gov.br\/Lista_Es_Nome.asp?Vcodigo=6735266" } ] }, "geoResult" : { "point" : { "lng" : -43.271916, "lat" : -22.871782 }, "address" : "Rua Lago Verde, 20, cep - 20211040" } }, { "name" : "Cf Anna Nery - Ap 32", "description" : { "text" : "ID_CNES:6713564, Telefone: , Fax: , Email: ", "information_urls" : [ { "url" : "http:\/\/cnes.datasus.gov.br\/Lista_Es_Nome.asp?Vcodigo=6713564" } ] }, "geoResult" : { "point" : { "lng" : -43.251841, "lat" : -22.900483 }, "address" : "Rua Ana Neri Com Rua General Belford, S\/N, cep - 20960082" } }, { "name" : "Cf Herbert Jose de Souza - Ap 32", "description" : { "text" : "ID_CNES:6681379, Telefone: , Fax: , Email:cap32@rio.rj.gov.br", "information_urls" : [ { "url" : "http:\/\/cnes.datasus.gov.br\/Lista_Es_Nome.asp?Vcodigo=6681379" } ] }, "geoResult" : { "point" : { "lng" : -43.305907, "lat" : -22.862435 }, "address" : "Avn Pastor Martin Luther King Jr, 4776, cep - 21220300" } }, { "name" : "Cms Dr Carlos Gentille de Mello - Ap 32", "description" : { "text" : "ID_CNES:2280744, Telefone:(21)25011822, Fax:(21)25811534, Email:pscgm@pcrj.rj.gov.br", "information_urls" : [ { "url" : "http:\/\/cnes.datasus.gov.br\/Lista_Es_Nome.asp?Vcodigo=2280744" } ] }, "geoResult" : { "point" : { "lng" : -43.273811, "lat" : -22.912545 }, "address" : "Rua Bicuiba, 181, cep - 20715350" } }, { "name" : "Cms Maria de Lourdes Ribeiro Da Silva - Ap 31", "description" : { "text" : "ID_CNES:6023231, Telefone:(21)77166698, Fax: , Email:CMSMARIADELOURDES@VIVACOMUNDIADE.ORG.BR", "information_urls" : [ { "url" : "http:\/\/cnes.datasus.gov.br\/Lista_Es_Nome.asp?Vcodigo=6023231" } ] }, "geoResult" : { "point" : { "lng" : -43.27626, "lat" : -22.871608 }, "address" : "Avn Itaoca, S\/N, CIEP CORONEL SARMENT, cep - 21061020" } }, { "name" : "Cms Milton Fontes Magarao - Ap 32", "description" : { "text" : "ID_CNES:2269805, Telefone:(21)31116707, Fax:(21)31116709, Email:cmsmfmagarao@rio.rj.gov.br", "information_urls" : [ { "url" : "http:\/\/cnes.datasus.gov.br\/Lista_Es_Nome.asp?Vcodigo=2269805" } ] }, "geoResult" : { "point" : { "lng" : -43.289003, "lat" : -22.897506 }, "address" : "Avn Amaro Cavalcanti, 1387, cep - 20735041" } }, { "name" : "Cms Tia Alice - Ap 32", "description" : { "text" : "ID_CNES:5598435, Telefone:22182928, Fax:22185238, Email:psmangueira@rio.rj.gov.br", "information_urls" : [ { "url" : "http:\/\/cnes.datasus.gov.br\/Lista_Es_Nome.asp?Vcodigo=5598435" } ] }, "geoResult" : { "point" : { "lng" : -43.242956, "lat" : -22.904711 }, "address" : "Rua Santos Mello, 72, cep - 20960030" } }, { "name" : "Hospital Da Piedade", "description" : { "text" : "ID_CNES:2269481, Telefone:(21)31116540, Fax:(21)31116548, Email:hmpiedade@rio.rj.gov.br", "information_urls" : [ { "url" : "http:\/\/cnes.datasus.gov.br\/Lista_Es_Nome.asp?Vcodigo=2269481" } ] }, "geoResult" : { "point" : { "lng" : -43.308353, "lat" : -22.891784 }, "address" : "Rua Da Capela, 96, cep - 20740310" } }, { "name" : "Policlinica Rodolpho Rocco - Ap 32", "description" : { "text" : "ID_CNES:2270471, Telefone:22703646, Fax:22703646, Email:pamrrocco@rio.rj.gov.br", "information_urls" : [ { "url" : "http:\/\/cnes.datasus.gov.br\/Lista_Es_Nome.asp?Vcodigo=2270471" } ] }, "geoResult" : { "point" : { "lng" : -43.271916, "lat" : -22.871782 }, "address" : "Etr Adhemar Bebiano, 339, cep - 21051070" } }, { "name" : "Upa 24 H Engenho de Dentro", "description" : { "text" : "ID_CNES:6631169, Telefone: , Fax: , Email: ", "information_urls" : [ { "url" : "http:\/\/cnes.datasus.gov.br\/Lista_Es_Nome.asp?Vcodigo=6631169" } ] }, "geoResult" : { "point" : { "lng" : -43.300953, "lat" : -22.902145 }, "address" : "Rua Bernardo, S\/N, cep - 20745270" } }, { "name" : "Cms Dr Renato Rocco - Ap 32", "description" : { "text" : "ID_CNES:2280736, Telefone:22414232, Fax:22017798, Email:psrrocco@rio.rj.go.br", "information_urls" : [ { "url" : "http:\/\/cnes.datasus.gov.br\/Lista_Es_Nome.asp?Vcodigo=2280736" } ] }, "geoResult" : { "point" : { "lng" : -43.261034, "lat" : -22.892524 }, "address" : "Rua Aires de Casal, SN, cep - 20785090" } }, { "name" : "Cms Sereno - Ap 31", "description" : { "text" : "ID_CNES:5179726, Telefone:33411424, Fax: , Email:psfcap31@rio.rj.gov.br", "information_urls" : [ { "url" : "http:\/\/cnes.datasus.gov.br\/Lista_Es_Nome.asp?Vcodigo=5179726" } ] }, "geoResult" : { "point" : { "lng" : -43.295859, "lat" : -22.842776 }, "address" : "Rua Frei Garpar, 286, COMPLEXO DO CARICO, cep - 21210270" } }, { "name" : "Cf Josuete Santanna de Oliveira - Ap 33", "description" : { "text" : "ID_CNES:6571956, Telefone: , Fax: , Email: ", "information_urls" : [ { "url" : "http:\/\/cnes.datasus.gov.br\/Lista_Es_Nome.asp?Vcodigo=6571956" } ] }, "geoResult" : { "point" : { "lng" : -43.37283, "lat" : -22.848318 }, "address" : "Rua Luiz Coutinho Cavalcanti, S\/N, cep - 21675380" } }, { "name" : "Cms Enfermeira Edma Valadao - Ap 33", "description" : { "text" : "ID_CNES:5044685, Telefone:34508356, Fax:34516558, Email:psfcap33@rio.rj.gov.br", "information_urls" : [ { "url" : "http:\/\/cnes.datasus.gov.br\/Lista_Es_Nome.asp?Vcodigo=5044685" } ] }, "geoResult" : { "point" : { "lng" : -43.338166, "lat" : -22.825694 }, "address" : "Avn Brasil, 18476, cep - 21530000" } }, { "name" : "Cms Dr Flavio do Couto Vieira - Ap 33", "description" : { "text" : "ID_CNES:2269759, Telefone:(21)2455-7516, Fax:(21)2455-7516, Email:psfcvieira@pcrj.rj.gov.br", "information_urls" : [ { "url" : "http:\/\/cnes.datasus.gov.br\/Lista_Es_Nome.asp?Vcodigo=2269759" } ] }, "geoResult" : { "point" : { "lng" : -43.412537, "lat" : -22.832142 }, "address" : "Rua Lucio Jose Filho, S\/N, cep - 21635290" } }, { "name" : "Cms Portus e Quitanda - Ap 33", "description" : { "text" : "ID_CNES:5315050, Telefone: , Fax: , Email:psfcap33@rio.rj.gov.br", "information_urls" : [ { "url" : "http:\/\/cnes.datasus.gov.br\/Lista_Es_Nome.asp?Vcodigo=5315050" } ] }, "geoResult" : { "point" : { "lng" : -43.367822, "lat" : -22.819119 }, "address" : "Rua Jorge Nogueira, S\/N, cep - 21520790" } }, { "name" : "Cf Epitacio Soares Reis - Ap 33", "description" : { "text" : "ID_CNES:6793231, Telefone: , Fax: , Email: ", "information_urls" : [ { "url" : "http:\/\/cnes.datasus.gov.br\/Lista_Es_Nome.asp?Vcodigo=6793231" } ] }, "geoResult" : { "point" : { "lng" : -43.376773, "lat" : -22.813142 }, "address" : "Cf, S\/N\u00b0, cep - 21550000" } }, { "name" : "Hospital Maternidade Alexander Fleming", "description" : { "text" : "ID_CNES:2269945, Telefone:(21)2458-3343, Fax:(21)2454-1205, Email:hmafleming@rio.rj.gov.br", "information_urls" : [ { "url" : "http:\/\/cnes.datasus.gov.br\/Lista_Es_Nome.asp?Vcodigo=2269945" } ] }, "geoResult" : { "point" : { "lng" : -43.370856, "lat" : -22.863028 }, "address" : "Rua Jorge Schmidt, 331, cep - 21610640" } }, { "name" : "Caps Arthur Bispo do Rosario - Ap 40", "description" : { "text" : "ID_CNES:5034272, Telefone:3412-5608, Fax:3412-5619, Email:capsbrosario@rio.rj.gov.br", "information_urls" : [ { "url" : "http:\/\/cnes.datasus.gov.br\/Lista_Es_Nome.asp?Vcodigo=5034272" } ] }, "geoResult" : { "point" : { "lng" : -43.394162, "lat" : -22.932876 }, "address" : "Etr Rodrigues Caldas, 3400, cep - 22713375" } }, { "name" : "Cms Canal do Anil - Ap 40", "description" : { "text" : "ID_CNES:3567524, Telefone:2133428323, Fax: , Email: ", "information_urls" : [ { "url" : "http:\/\/cnes.datasus.gov.br\/Lista_Es_Nome.asp?Vcodigo=3567524" } ] }, "geoResult" : { "point" : { "lng" : -43.347185, "lat" : -22.965573 }, "address" : "Rua Melo, 2, cep - 22765430" } }, { "name" : "Cms Hamilton Land - Ap 40", "description" : { "text" : "ID_CNES:4046307, Telefone:(21)34123199, Fax:(21)34123774, Email:cmshland@rio.rj.gov.br", "information_urls" : [ { "url" : "http:\/\/cnes.datasus.gov.br\/Lista_Es_Nome.asp?Vcodigo=4046307" } ] }, "geoResult" : { "point" : { "lng" : -43.359203, "lat" : -22.948052 }, "address" : "Avn Edgard Werneck, 1601, CIDADE DE DEUS, cep - 22763011" } }, { "name" : "Cms Jorge Saldanha Bandeira de Mello - Ap 40", "description" : { "text" : "ID_CNES:2296543, Telefone:21 3392-0050, Fax:21 3392-0050, Email:cmsjsbmello@rio.rj.gov.br", "information_urls" : [ { "url" : "http:\/\/cnes.datasus.gov.br\/Lista_Es_Nome.asp?Vcodigo=2296543" } ] }, "geoResult" : { "point" : { "lng" : -43.359726, "lat" : -22.919686 }, "address" : "Avn Geremario Dantas, 135, cep - 22735010" } }, { "name" : "Cms Luiz Gonzaga Rei do Baiao- Ap 40", "description" : { "text" : "ID_CNES:3481921, Telefone:(21)34155020, Fax:(21)34155032, Email:pslgonzaga@rio.rj.gov.br", "information_urls" : [ { "url" : "http:\/\/cnes.datasus.gov.br\/Lista_Es_Nome.asp?Vcodigo=3481921" } ] }, "geoResult" : { "point" : { "lng" : -43.334998, "lat" : -22.964899 }, "address" : "Etr de Jacarepagua, 5011, cep - 22723730" } }, { "name" : "Cms Santa Maria - Ap 40", "description" : { "text" : "ID_CNES:5465885, Telefone: , Fax: , Email: ", "information_urls" : [ { "url" : "http:\/\/cnes.datasus.gov.br\/Lista_Es_Nome.asp?Vcodigo=5465885" } ] }, "geoResult" : { "point" : { "lng" : -43.419588, "lat" : -22.914283 }, "address" : "Etr do Rio Pequeno, S\/N, cep - 22723195" } }, { "name" : "Coordenacao de Area de Planejamento Ap 40", "description" : { "text" : "ID_CNES:5466032, Telefone:21 3325 1765, Fax:21 3325 1765, Email:cap40@rio.rj.gov.br", "information_urls" : [ { "url" : "http:\/\/cnes.datasus.gov.br\/Lista_Es_Nome.asp?Vcodigo=5466032" } ] }, "geoResult" : { "point" : { "lng" : -43.364384, "lat" : -22.99368 }, "address" : "Avn Ayrton Senna, 2001, BL. C SALAS 56 E 57, cep - 22775003" } }, { "name" : "Cf Maury Alves de Pinho - Ap 40", "description" : { "text" : "ID_CNES:6716598, Telefone: , Fax: , Email: ", "information_urls" : [ { "url" : "http:\/\/cnes.datasus.gov.br\/Lista_Es_Nome.asp?Vcodigo=6716598" } ] }, "geoResult" : { "point" : { "lng" : -43.431626, "lat" : -22.992436 }, "address" : "Etr dos Bandeirantes, 11227, RUA F, cep - 22783116" } }, { "name" : "Hospital Muncipal Lourenco Jorge", "description" : { "text" : "ID_CNES:2270609, Telefone:(21)33250475, Fax:(21)33251601, Email:hmljorge@rio.rj.gov.br", "information_urls" : [ { "url" : "http:\/\/cnes.datasus.gov.br\/Lista_Es_Nome.asp?Vcodigo=2270609" } ] }, "geoResult" : { "point" : { "lng" : -43.364384, "lat" : -22.99368 }, "address" : "Avn Ayrton Senna, 2000, cep - 22793000" } }, { "name" : "Policlinica Newton Bethlem - Ap 40", "description" : { "text" : "ID_CNES:2708175, Telefone:21 38337052, Fax:21 38338555, Email:pnbethlem@rio.rj.gov.br", "information_urls" : [ { "url" : "http:\/\/cnes.datasus.gov.br\/Lista_Es_Nome.asp?Vcodigo=2708175" } ] }, "geoResult" : { "point" : { "lng" : -43.347206, "lat" : -22.901861 }, "address" : "Rua Barao, 259, PRACA SECA, cep - 21321620" } }, { "name" : "Upa 24h Cidade de Deus", "description" : { "text" : "ID_CNES:6575900, Telefone: , Fax: , Email: ", "information_urls" : [ { "url" : "http:\/\/cnes.datasus.gov.br\/Lista_Es_Nome.asp?Vcodigo=6575900" } ] }, "geoResult" : { "point" : { "lng" : -43.359203, "lat" : -22.948052 }, "address" : "Rua Edgar Werneck, S\/N, cep - 22763010" } }, { "name" : "Centro Operacional Regional - Barra", "description" : { "text" : "ID_CNES:6716938, Telefone:21, Fax: , Email: ", "information_urls" : [ { "url" : "http:\/\/cnes.datasus.gov.br\/Lista_Es_Nome.asp?Vcodigo=6716938" } ] }, "geoResult" : { "point" : { "lng" : -43.364384, "lat" : -22.99368 }, "address" : "Avn Luis Carlos Prestes, 55, PARTE, cep - 22775055" } }, { "name" : "Cms Alexander Fleming - Ap 51", "description" : { "text" : "ID_CNES:2269848, Telefone:(21)24015626, Fax:(21)24018456, Email:pssafleming@rio.rj.gov.br", "information_urls" : [ { "url" : "http:\/\/cnes.datasus.gov.br\/Lista_Es_Nome.asp?Vcodigo=2269848" } ] }, "geoResult" : { "point" : { "lng" : -43.482116, "lat" : -22.889791 }, "address" : "Rua Marmiari, S\/N, PRACA DA TROPA, cep - 21831000" } }, { "name" : "Cms Cancela Preta - Ap 51", "description" : { "text" : "ID_CNES:3416372, Telefone:(21)33380775, Fax: , Email: ", "information_urls" : [ { "url" : "http:\/\/cnes.datasus.gov.br\/Lista_Es_Nome.asp?Vcodigo=3416372" } ] }, "geoResult" : { "point" : { "lng" : -43.449992, "lat" : -22.85765 }, "address" : "Etr General Afonso de Carvalho, 85, cep - 21725020" } }, { "name" : "Cms Dr Eithel Pinheiro de Oliveira Lima - Ap 51", "description" : { "text" : "ID_CNES:2270579, Telefone:33385870, Fax:33385870, Email: ", "information_urls" : [ { "url" : "http:\/\/cnes.datasus.gov.br\/Lista_Es_Nome.asp?Vcodigo=2270579" } ] }, "geoResult" : { "point" : { "lng" : -43.483871, "lat" : -22.867843 }, "address" : "Etr do Taquaral, S\/N, RUA M COM RUA C, cep - 21842550" } }, { "name" : "Cms Waldyr Franco - Ap 51", "description" : { "text" : "ID_CNES:2270420, Telefone:(21)33329322, Fax:(21)33321359, Email:cmswfranco@rio.rj.gov.br", "information_urls" : [ { "url" : "http:\/\/cnes.datasus.gov.br\/Lista_Es_Nome.asp?Vcodigo=2270420" } ] }, "geoResult" : { "point" : { "lng" : -43.469601, "lat" : -22.874634 }, "address" : "Prc Cecilia Pedro, 60, cep - 21840600" } }, { "name" : "Upa 24h Vila Kennedy", "description" : { "text" : "ID_CNES:6487815, Telefone:21 2405-4167, Fax: , Email: ", "information_urls" : [ { "url" : "http:\/\/cnes.datasus.gov.br\/Lista_Es_Nome.asp?Vcodigo=6487815" } ] }, "geoResult" : { "point" : { "lng" : -43.490724, "lat" : -22.853842 }, "address" : "Prc Dolomitas, S\/N, cep - 20211901" } }, { "name" : "Cms Prof Masao Goto - Ap 51", "description" : { "text" : "ID_CNES:2270560, Telefone:(21)33577471, Fax:(21)33577273, Email: ", "information_urls" : [ { "url" : "http:\/\/cnes.datasus.gov.br\/Lista_Es_Nome.asp?Vcodigo=2270560" } ] }, "geoResult" : { "point" : { "lng" : -43.398401, "lat" : -22.88612 }, "address" : "Avn Carlos Pontes, S\/N, cep - 21741340" } }, { "name" : "Coordenacao de Area de Planejamento - Ap 51", "description" : { "text" : "ID_CNES:5682819, Telefone:21-3017-6864, Fax:21-2454-3241, Email:cap51@rio.rj.gov.br", "information_urls" : [ { "url" : "http:\/\/cnes.datasus.gov.br\/Lista_Es_Nome.asp?Vcodigo=5682819" } ] }, "geoResult" : { "point" : { "lng" : -43.398401, "lat" : -22.88612 }, "address" : "Avn Carlos Pontes, S\/N\u00ba, cep - 21741340" } }, { "name" : "Cms Dr Henrique Monat - Ap 51", "description" : { "text" : "ID_CNES:2270439, Telefone:(21)24051591, Fax:(21)24053336, Email:pshmonat@rio.rj.gov.br", "information_urls" : [ { "url" : "http:\/\/cnes.datasus.gov.br\/Lista_Es_Nome.asp?Vcodigo=2270439" } ] }, "geoResult" : { "point" : { "lng" : -43.490724, "lat" : -22.853842 }, "address" : "Rua I, 7, CONJ QUAFA, cep - 21853050" } }, { "name" : "Caps Pedro Pellegrino", "description" : { "text" : "ID_CNES:2708388, Telefone:(21)33942583, Fax:(21)33942583, Email:capppellegrino@rio.rj.gov.br", "information_urls" : [ { "url" : "http:\/\/cnes.datasus.gov.br\/Lista_Es_Nome.asp?Vcodigo=2708388" } ] }, "geoResult" : { "point" : { "lng" : -43.558364, "lat" : -22.91802 }, "address" : "Prc Major Vieira de Melo, 13, FUNDOS, cep - 23045405" } }, { "name" : "Cf Alkindar Soares Pereira Filho - Ap 52", "description" : { "text" : "ID_CNES:3567567, Telefone:(21)24175203, Fax:(21)33167388, Email:psfcap52@rio.rj.gov.br", "information_urls" : [ { "url" : "http:\/\/cnes.datasus.gov.br\/Lista_Es_Nome.asp?Vcodigo=3567567" } ] }, "geoResult" : { "point" : { "lng" : -43.647752, "lat" : -22.975345 }, "address" : "Etr Da Pedra, S\/N\u00ba, cep - 23012140" } }, { "name" : "Cf Dr David Capistrano Filho - Ap 52", "description" : { "text" : "ID_CNES:5154197, Telefone: , Fax: , Email:gerentecfdcf@gmail.com", "information_urls" : [ { "url" : "http:\/\/cnes.datasus.gov.br\/Lista_Es_Nome.asp?Vcodigo=5154197" } ] }, "geoResult" : { "point" : { "lng" : -43.583965, "lat" : -22.910524 }, "address" : "Avn Cesario de Melo, SN, cep - 23045210" } }, { "name" : "Cf Dr Jose de Paula Lopes Pontes - Ap 52", "description" : { "text" : "ID_CNES:6635709, Telefone: , Fax: , Email:gerentecf.jplp@gmail.com", "information_urls" : [ { "url" : "http:\/\/cnes.datasus.gov.br\/Lista_Es_Nome.asp?Vcodigo=6635709" } ] }, "geoResult" : { "point" : { "lng" : -43.608696, "lat" : -22.955598 }, "address" : "Rua Jaburu, S\/N, cep - 23031190" } }, { "name" : "Cms Dr Alvimar de Carvalho - Ap 52", "description" : { "text" : "ID_CNES:2270277, Telefone:(21)3404-7799, Fax:(21)24172652, Email:psacarvalho@rio.rj.gov.br", "information_urls" : [ { "url" : "http:\/\/cnes.datasus.gov.br\/Lista_Es_Nome.asp?Vcodigo=2270277" } ] }, "geoResult" : { "point" : { "lng" : -43.627306, "lat" : -22.996899 }, "address" : "Rua Soldado Eliseu Hipolilito, S\/N, cep - 23025110" } }, { "name" : "Cms Professor Edgard Magalhaes Gomes - Ap 52", "description" : { "text" : "ID_CNES:2269538, Telefone:(21)3377-2850, Fax:(21)3377-2813, Email:psemgomes@rio.rj.gov.br", "information_urls" : [ { "url" : "http:\/\/cnes.datasus.gov.br\/Lista_Es_Nome.asp?Vcodigo=2269538" } ] }, "geoResult" : { "point" : { "lng" : -43.595381, "lat" : -22.909288 }, "address" : "Prc Filomena Carlos Magno, 0, cep - 23063055" } }, { "name" : "Cms Fazenda Modelo Ii \/ Correia - Ap 52", "description" : { "text" : "ID_CNES:5620287, Telefone: , Fax: , Email:gerentelgco@gmail.com", "information_urls" : [ { "url" : "http:\/\/cnes.datasus.gov.br\/Lista_Es_Nome.asp?Vcodigo=5620287" } ] }, "geoResult" : { "point" : { "lng" : -43.583887, "lat" : -22.957695 }, "address" : "Rua General Pessoa Cavalcante, 370, cep - 23030440" } }, { "name" : "Cms Professor Manoel de Abreu - Ap 52", "description" : { "text" : "ID_CNES:2270366, Telefone:(21)33943265, Fax:(21)33943265, Email:pspmabreu@rio.rj.gov.br", "information_urls" : [ { "url" : "http:\/\/cnes.datasus.gov.br\/Lista_Es_Nome.asp?Vcodigo=2270366" } ] }, "geoResult" : { "point" : { "lng" : -43.5327, "lat" : -22.874438 }, "address" : "Rua Padre Noe Gualberto, 1, cep - 23093045" } }, { "name" : "Cms Dr Mario Rodrigues Cid - Ap 52", "description" : { "text" : "ID_CNES:2269562, Telefone:34024261, Fax:34024179, Email:psmrcid@rio.rj.gov.br", "information_urls" : [ { "url" : "http:\/\/cnes.datasus.gov.br\/Lista_Es_Nome.asp?Vcodigo=2269562" } ] }, "geoResult" : { "point" : { "lng" : -43.606884, "lat" : -22.891249 }, "address" : "Rua Matureia, SN, SANTA MARGARIDA, cep - 23060050" } }, { "name" : "Cms Dr Mario Vitor de Assis Pacheco - Ap 52", "description" : { "text" : "ID_CNES:2270633, Telefone:(21) 3394 3842, Fax:(21)2413 8979, Email:psmvapacheco@rio.rj.gov.br", "information_urls" : [ { "url" : "http:\/\/cnes.datasus.gov.br\/Lista_Es_Nome.asp?Vcodigo=2270633" } ] }, "geoResult" : { "point" : { "lng" : -43.583965, "lat" : -22.910524 }, "address" : "Avn Cesario de Melo, 5580, cep - 23059001" } }, { "name" : "Cms Raul Barroso - Ap 52", "description" : { "text" : "ID_CNES:2270293, Telefone:(21)24101117, Fax:(21)24101117, Email:uacpsrbarroso@rio.rj.gov.br", "information_urls" : [ { "url" : "http:\/\/cnes.datasus.gov.br\/Lista_Es_Nome.asp?Vcodigo=2270293" } ] }, "geoResult" : { "point" : { "lng" : -43.540188, "lat" : -23.005368 }, "address" : "Etr Da Barra, S\/N, cep - 23020240" } }, { "name" : "Cms Vila do Ceu - Ap 52", "description" : { "text" : "ID_CNES:5670357, Telefone:24192280, Fax: , Email:gerentevc@gmail.com", "information_urls" : [ { "url" : "http:\/\/cnes.datasus.gov.br\/Lista_Es_Nome.asp?Vcodigo=5670357" } ] }, "geoResult" : { "point" : { "lng" : -43.611181, "lat" : -22.912141 }, "address" : "Rua Guaruja, 69, cep - 23060660" } }, { "name" : "Cms Vila Sao Jorge - Ap 52", "description" : { "text" : "ID_CNES:3567575, Telefone:(21)34090349, Fax:(21)33167388, Email:psfcap52@pcrj.rj.gov.br", "information_urls" : [ { "url" : "http:\/\/cnes.datasus.gov.br\/Lista_Es_Nome.asp?Vcodigo=3567575" } ] }, "geoResult" : { "point" : { "lng" : -43.606331, "lat" : -22.913607 }, "address" : "Rua Projetada, 2, cep - 23059340" } }, { "name" : "Policlinica Carlos Alberto Nascimento - Ap 52", "description" : { "text" : "ID_CNES:2270331, Telefone:(21)24134709, Fax:(21)24134709, Email:pamcanascimento@rio.rj.gov.br", "information_urls" : [ { "url" : "http:\/\/cnes.datasus.gov.br\/Lista_Es_Nome.asp?Vcodigo=2270331" } ] }, "geoResult" : { "point" : { "lng" : -43.558364, "lat" : -22.91802 }, "address" : "Prc Major Vieira de Mello, S\/N, cep - 23045405" } }, { "name" : "Cf Edson Abdalla Saad - Ap 53", "description" : { "text" : "ID_CNES:6671020, Telefone: , Fax: , Email: ", "information_urls" : [ { "url" : "http:\/\/cnes.datasus.gov.br\/Lista_Es_Nome.asp?Vcodigo=6671020" } ] }, "geoResult" : { "point" : { "lng" : -43.655404, "lat" : -22.93096 }, "address" : "Rua 1, S\/N\u00ba, cep - 23550740" } }, { "name" : "Cf Helande Goncalves de Mello - Ap53", "description" : { "text" : "ID_CNES:6618863, Telefone: , Fax: , Email: ", "information_urls" : [ { "url" : "http:\/\/cnes.datasus.gov.br\/Lista_Es_Nome.asp?Vcodigo=6618863" } ] }, "geoResult" : { "point" : { "lng" : -43.628798, "lat" : -22.917772 }, "address" : "Prc Muledo, S\/N, ESTRADA DE PACIENCIA, cep - 23585045" } }, { "name" : "Cf Ilzo Motta de Mello - Ap53", "description" : { "text" : "ID_CNES:6559727, Telefone:33956771, Fax: , Email: ", "information_urls" : [ { "url" : "http:\/\/cnes.datasus.gov.br\/Lista_Es_Nome.asp?Vcodigo=6559727" } ] }, "geoResult" : { "point" : { "lng" : -43.644704, "lat" : -22.921052 }, "address" : "Avn Cesario de Melo, 11485, TRES PONTES, cep - 23056000" } }, { "name" : "Cf Jamil Haddad - Ap53", "description" : { "text" : "ID_CNES:6618871, Telefone: , Fax: , Email: ", "information_urls" : [ { "url" : "http:\/\/cnes.datasus.gov.br\/Lista_Es_Nome.asp?Vcodigo=6618871" } ] }, "geoResult" : { "point" : { "lng" : -43.641238, "lat" : -22.883549 }, "address" : "Rua Soldado Joao Rotelo, S\/N\u00ba, cep - 23066090" } }, { "name" : "Cf Lourenco Melo - Ap53", "description" : { "text" : "ID_CNES:6572014, Telefone:34277068, Fax:34275844, Email: ", "information_urls" : [ { "url" : "http:\/\/cnes.datasus.gov.br\/Lista_Es_Nome.asp?Vcodigo=6572014" } ] }, "geoResult" : { "point" : { "lng" : -43.642591, "lat" : -22.917552 }, "address" : "Rua Coronel Tito Porto Carrero, S\/N\u00ba, cep - 23580110" } }, { "name" : "Cf Sergio Arouca - Ap53", "description" : { "text" : "ID_CNES:6618855, Telefone:33651524, Fax: , Email: ", "information_urls" : [ { "url" : "http:\/\/cnes.datasus.gov.br\/Lista_Es_Nome.asp?Vcodigo=6618855" } ] }, "geoResult" : { "point" : { "lng" : -43.693801, "lat" : -22.918288 }, "address" : "Rua do Imperio, S\/N, cep - 23555024" } }, { "name" : "Cf Valeria Gomes Esteves - Ap 53", "description" : { "text" : "ID_CNES:3785009, Telefone:31581733, Fax: , Email:psfcap53@rio.rj.gov.br", "information_urls" : [ { "url" : "http:\/\/cnes.datasus.gov.br\/Lista_Es_Nome.asp?Vcodigo=3785009" } ] }, "geoResult" : { "point" : { "lng" : -43.70467, "lat" : -22.960769 }, "address" : "Rua Vitoria Regia, Q. 4, BALNEARIO GLOBO, cep - 23545115" } }, { "name" : "Cms Dr Cattapreta - Ap 53", "description" : { "text" : "ID_CNES:2269929, Telefone:(21)31581734, Fax:(21)3158733, Email:cattapreta@rio.rj.gov.br", "information_urls" : [ { "url" : "http:\/\/cnes.datasus.gov.br\/Lista_Es_Nome.asp?Vcodigo=2269929" } ] }, "geoResult" : { "point" : { "lng" : -43.717387, "lat" : -22.889772 }, "address" : "Rua Engenheiro Jose Boanerges Cesar, S\/N\u00ba, CONJ SAO FERNANDO, cep - 23565380" } }, { "name" : "Cms Cesario de Mello - Ap53", "description" : { "text" : "ID_CNES:2273578, Telefone:(21)33052049, Fax:(21)33951633, Email:pscmelo@rio.rj.gov.br", "information_urls" : [ { "url" : "http:\/\/cnes.datasus.gov.br\/Lista_Es_Nome.asp?Vcodigo=2273578" } ] }, "geoResult" : { "point" : { "lng" : -43.661054, "lat" : -22.9336 }, "address" : "Rua 2, S\/N\u00ba, CONJ CESARAO, cep - 23595040" } }, { "name" : "Cms Dr Cyro de Mello - Manguariba - Ap 53", "description" : { "text" : "ID_CNES:2273616, Telefone:(21)24188065, Fax: , Email:uacpscmello@pcrj.rj.gov.br", "information_urls" : [ { "url" : "http:\/\/cnes.datasus.gov.br\/Lista_Es_Nome.asp?Vcodigo=2273616" } ] }, "geoResult" : { "point" : { "lng" : -43.627708, "lat" : -22.873073 }, "address" : "Rua do Canal, S\/N, CONJUNTO MANGUARIBA, cep - 23065630" } }, { "name" : "Cms Adelino Simoes - Ap 53", "description" : { "text" : "ID_CNES:6026737, Telefone:(21)23337280, Fax: , Email: ", "information_urls" : [ { "url" : "http:\/\/cnes.datasus.gov.br\/Lista_Es_Nome.asp?Vcodigo=6026737" } ] }, "geoResult" : { "point" : { "lng" : -43.685718, "lat" : -22.955632 }, "address" : "Avn Sete, S\/N\u00ba, NOVA SEPETIBA, cep - 23520660" } }, { "name" : "Cf Barbara Starfield - Ap 32", "description" : { "text" : "ID_CNES:6820018, Telefone: , Fax: , Email: ", "information_urls" : [ { "url" : "http:\/\/cnes.datasus.gov.br\/Lista_Es_Nome.asp?Vcodigo=6820018" } ] }, "geoResult" : { "point" : { "lng" : -43.269997, "lat" : -22.878114 }, "address" : "Rua Volta Grande, SN, PCA AUGUSTO MONTEIRO, cep - 21051100" } }, { "name" : "Cf Anthidio Dias Da Silveira - Ap 32", "description" : { "text" : "ID_CNES:6808077, Telefone: , Fax: , Email: ", "information_urls" : [ { "url" : "http:\/\/cnes.datasus.gov.br\/Lista_Es_Nome.asp?Vcodigo=6808077" } ] }, "geoResult" : { "point" : { "lng" : -43.252482, "lat" : -22.88442 }, "address" : "Avn Dom Helder Camara, SN, cep - 20973011" } }, { "name" : "Cf Maria de Azevedo Rodrigues Pereira - Ap 33", "description" : { "text" : "ID_CNES:6761704, Telefone: , Fax: , Email: ", "information_urls" : [ { "url" : "http:\/\/cnes.datasus.gov.br\/Lista_Es_Nome.asp?Vcodigo=6761704" } ] }, "geoResult" : { "point" : { "lng" : -43.407409, "lat" : -22.833812 }, "address" : "Prc Professora Santinha, S\/N, cep - 21620510" } },