{ "results" : [ { "name" : "DRF - Delegacia de Roubos e Furtos", "description" : { "text" : "Telefone:2233-2701" }, "geoResult" : { "address" : "Praca Maua, 5 - Centro", "point" : { "lng" : -43.181977, "lat" : -22.896895 } } }, { "name" : "DMMA - Delegacia Movel de Meio Ambiente", "description" : { "text" : "Telefone:2399-7191" }, "geoResult" : { "address" : "Praca Desembargador Araujo Jorge, s\/n", "point" : { "lng" : -43.296946, "lat" : -23.010885 } } }, { "name" : "DEAC - Delegacia Especial de Acervo Cartor\u00e1rio", "description" : { "text" : "Telefone:2224-4493" }, "geoResult" : { "address" : "Rua do Lavradio, 155 - Lapa", "point" : { "lng" : -43.181915, "lat" : -22.912576 } } }, { "name" : "DELTRAN - Delegacia Especial de Transito", "description" : { "text" : "Telefone:2399-3250" }, "geoResult" : { "address" : "Rua Silvino Montenegro, 1 \/ 4\u00ba andar - Gamboa", "point" : { "lng" : -43.190773, "lat" : -22.893184 } } }, { "name" : "DDEF - Delegacia de Defraudacoes", "description" : { "text" : "Telefone:2399-3671" }, "geoResult" : { "address" : "Rua Silvino Montenegro, 1 \/ 4\u00ba andar - Gamboa", "point" : { "lng" : -43.190809, "lat" : -22.893305 } } }, { "name" : "DELFAZ - Delegacia  de Policia Fazendaria", "description" : { "text" : "Telefone:2399-3658" }, "geoResult" : { "address" : "Rua Silvino Montenegro, 1 \/ 4\u00ba andar - Gamboa", "point" : { "lng" : -43.190832, "lat" : -22.893407 } } }, { "name" : "DH - Delegacia de Homicidios", "description" : { "text" : "Telefone:2242-1938 \/ 2399-3600 \/ 2399-3601" }, "geoResult" : { "address" : "Rua da Relacao, 42 \/ 7\u00ba andar - Centro", "point" : { "lng" : -43.184343, "lat" : -22.91024 } } }, { "name" : "DRCCSP - Delegacia de Repressao a Crimes contra a Saude Publica", "description" : { "text" : "Telefone:2399-3372 \/ 2399-3379" }, "geoResult" : { "address" : "Avenida Graca Aranha, 169 - terreo - Centro", "point" : { "lng" : -43.174826, "lat" : -22.908235 } } }, { "name" : "1\u00ba DP - Praca Maua", "description" : { "text" : "Telefone:3399-5000" }, "geoResult" : { "address" : "Praca Maua, 5 \/ 2\u00ba andar", "point" : { "lng" : -43.181981, "lat" : -22.896905 } } }, { "name" : "4\u00ba DP - Central do Brasil", "description" : { "text" : "Telefone:3399-5010" }, "geoResult" : { "address" : "Praca da Republica, 111", "point" : { "lng" : -43.189768, "lat" : -22.908217 } } }, { "name" : "5\u00ba DP - Mem de Sa", "description" : { "text" : "Telefone:3399-5050" }, "geoResult" : { "address" : "Avenida Gomes Freire, 320", "point" : { "lng" : -43.184317, "lat" : -22.910038 } } }, { "name" : "6\u00ba DP - Cidade Nova", "description" : { "text" : "Telefone:3399-5020" }, "geoResult" : { "address" : "Rua Professor Clementino Fraga, 77", "point" : { "lng" : -43.196162, "lat" : -22.908822 } } }, { "name" : "7\u00ba DP - Santa Tereza", "description" : { "text" : "Telefone:3399-5070" }, "geoResult" : { "address" : "Rua Francisco de Castro, 5", "point" : { "lng" : -43.18724, "lat" : -22.92424 } } }, { "name" : "10\u00ba DP - Botafogo", "description" : { "text" : "Telefone:3399-7110" }, "geoResult" : { "address" : "Rua Bambina, 140", "point" : { "lng" : -43.186169, "lat" : -22.947845 } } }, { "name" : "12\u00ba DP - Copacabana", "description" : { "text" : "Telefone:3399-7070" }, "geoResult" : { "address" : "Rua Hilario de Gouveia, 102", "point" : { "lng" : -43.184447, "lat" : -22.967484 } } }, { "name" : "13\u00ba DP - Ipanema", "description" : { "text" : "Telefone:3399-7090" }, "geoResult" : { "address" : "Avenida Nossa Senhora de Copacabana, 1.260", "point" : { "lng" : -43.191081, "lat" : -22.982762 } } }, { "name" : "15\u00ba DP - Gavea", "description" : { "text" : "Telefone:3399-7040" }, "geoResult" : { "address" : "Rua Major Rubens Vaz, 170", "point" : { "lng" : -43.225836, "lat" : -22.972285 } } }, { "name" : "16\u00ba DP - Barra da Tijuca", "description" : { "text" : "Telefone:3399-7140" }, "geoResult" : { "address" : "Rua General Ivan Raposo, s\/no", "point" : { "lng" : -43.314169, "lat" : -23.012331 } } }, { "name" : "14\u00ba DP - Leblon", "description" : { "text" : "Telefone:3399-7120" }, "geoResult" : { "address" : "Rua Humberto de Campos, 315", "point" : { "lng" : -43.21861, "lat" : -22.981735 } } }, { "name" : "17\u00ba DP - Sao Cristovao", "description" : { "text" : "Telefone:3399-5030" }, "geoResult" : { "address" : "Rua Sao Cristovao, 309", "point" : { "lng" : -43.218701, "lat" : -22.904378 } } }, { "name" : "18\u00ba DP - Praca da Bandeira", "description" : { "text" : "Telefone:3399-5040" }, "geoResult" : { "address" : "Rua Barao de Iguatemi, 331", "point" : { "lng" : -43.214404, "lat" : -22.913163 } } }, { "name" : "19\u00ba DP - Tijuca", "description" : { "text" : "Telefone:3399-5080" }, "geoResult" : { "address" : "Rua General Espirito Santo Cardoso, 208", "point" : { "lng" : -43.244687, "lat" : -22.930581 } } }, { "name" : "20\u00ba DP - Vila Isabel", "description" : { "text" : "Telefone:3399-5090" }, "geoResult" : { "address" : "Rua Leopoldo, 280", "point" : { "lng" : -43.251999, "lat" : -22.927749 } } }, { "name" : "21\u00ba DP - Bonsucesso", "description" : { "text" : "Telefone:3399-6110" }, "geoResult" : { "address" : "Avenida dos Democraticos, 1322", "point" : { "lng" : -43.258304, "lat" : -22.872635 } } }, { "name" : "22\u00ba DP - Penha", "description" : { "text" : "Telefone:3399-6220" }, "geoResult" : { "address" : "Avenida Lobo Junior, 750", "point" : { "lng" : -43.276079, "lat" : -22.827984 } } }, { "name" : "23\u00ba DP - Meier", "description" : { "text" : "Telefone:3399-6330" }, "geoResult" : { "address" : "Rua Aristides Caire, 80", "point" : { "lng" : -43.277866, "lat" : -22.899025 } } }, { "name" : "25\u00ba DP - Engenho Novo", "description" : { "text" : "Telefone:3399-6250" }, "geoResult" : { "address" : "Rua Vinte e Quatro de Maio, 983", "point" : { "lng" : -43.268985, "lat" : -22.903184 } } }, { "name" : "24\u00ba DP - Todos os Santos", "description" : { "text" : "Telefone:3399-6260" }, "geoResult" : { "address" : "Rua Adriano, 304", "point" : { "lng" : -43.290307, "lat" : -22.902423 } } }, { "name" : "27\u00ba DP - Vicente de Carvalho", "description" : { "text" : "Telefone:3399-6270" }, "geoResult" : { "address" : "Avenida Meriti, 486", "point" : { "lng" : -43.307915, "lat" : -22.853462 } } }, { "name" : "28\u00ba DP - Campinho", "description" : { "text" : "Telefone:3399-6280" }, "geoResult" : { "address" : "Rua Candido Benicio, 727", "point" : { "lng" : -43.346084, "lat" : -22.889307 } } }, { "name" : "29\u00ba DP - Madureira", "description" : { "text" : "Telefone:3399-6290" }, "geoResult" : { "address" : "Avenida Ministro Edgard Romero, 227", "point" : { "lng" : -43.336207, "lat" : -22.871435 } } }, { "name" : "30\u00ba DP - Marechal Hermes", "description" : { "text" : "Telefone:3399-6300" }, "geoResult" : { "address" : "Rua General Oswaldo Cordeiro de Faria, 340", "point" : { "lng" : -43.373404, "lat" : -22.86432 } } }, { "name" : "37\u00ba DP - Ilha do Governador", "description" : { "text" : "Telefone:3393-5211" }, "geoResult" : { "address" : "Estrada do Galeao, 1.365", "point" : { "lng" : -43.196742, "lat" : -22.808291 } } }, { "name" : "38\u00ba DP - Iraj\u00e1", "description" : { "text" : "Telefone:3399-6380" }, "geoResult" : { "address" : "Avenida Bras de Pina, 1.115", "point" : { "lng" : -43.301193, "lat" : -22.840784 } } }, { "name" : "40\u00ba DP - Honorio Gurgel", "description" : { "text" : "Telefone:3399-6400" }, "geoResult" : { "address" : "Rua Guarama, 40 - n. porta= 15", "point" : { "lng" : -43.349029, "lat" : -22.840567 } } }, { "name" : "34\u00ba DP - Bangu", "description" : { "text" : "Telefone:3399-5640" }, "geoResult" : { "address" : "Rua Sabogi, 51", "point" : { "lng" : -43.46312, "lat" : -22.874492 } } }, { "name" : "32\u00ba DP - Jacarepagua", "description" : { "text" : "Telefone:3399-7160" }, "geoResult" : { "address" : "Rua Henriqueta, 197", "point" : { "lng" : -43.358593, "lat" : -22.91972 } } }, { "name" : "35\u00ba DP - Campo Grande", "description" : { "text" : "Telefone:3399-5650" }, "geoResult" : { "address" : "Avenida Maria Tereza, Lt 8\/9\/10", "point" : { "lng" : -43.566488, "lat" : -22.904323 } } }, { "name" : "39\u00ba DP - Pavuna", "description" : { "text" : "Telefone:3399-6390" }, "geoResult" : { "address" : "Rua Sargento de Milicias, s\/n", "point" : { "lng" : -43.363776, "lat" : -22.805236 } } }, { "name" : "31\u00ba DP - Ricardo de Albuquerque", "description" : { "text" : "Telefone:3399-6310" }, "geoResult" : { "address" : "Avenida Marechal Alencastro, 4933 - QD. B", "point" : { "lng" : -43.403482, "lat" : -22.824648 } } }, { "name" : "33\u00ba DP - Realengo", "description" : { "text" : "Telefone:3399-5630" }, "geoResult" : { "address" : "Rua Bernardo de Vasconcelos,  1780", "point" : { "lng" : -43.436921, "lat" : -22.875726 } } }, { "name" : "36\u00ba DP - Santa Cruz", "description" : { "text" : "Telefone:3399-5660" }, "geoResult" : { "address" : "Avenida Dom Joao VI, 67", "point" : { "lng" : -43.684467, "lat" : -22.914432 } } }, { "name" : "DAS - Divisao Anti-Sequestro", "description" : { "text" : "Telefone:2259-9477" }, "geoResult" : { "address" : "Avenida Afranio de Melo Franco, 159 - Leblon", "point" : { "lng" : -43.2184, "lat" : -22.981731 } } }, { "name" : "DC Polinter - Divisao de Captura de Policia", "description" : { "text" : "Telefone:2399-3780" }, "geoResult" : { "address" : "Rua Silvino Montenegro, 1 \/ 2\u00ba andar - Gamboa", "point" : { "lng" : -43.19078, "lat" : -22.893226 } } }, { "name" : "DEAM Rio - Delegacia Especial de Atendimento a Mulher", "description" : { "text" : "Telefone:2399-3690" }, "geoResult" : { "address" : "Rua Silvino Montenegro, 1 \/ 3\u00ba andar - Gamboa", "point" : { "lng" : -43.190821, "lat" : -22.893372 } } }, { "name" : "DEAM Rio-Oeste - Delegacia Especial de Atendimento a Mulher", "description" : { "text" : "Telefone:2232-1262" }, "geoResult" : { "address" : "Avenida Cesario de Mello, 4.138 - Campo Grande", "point" : { "lng" : -43.57142, "lat" : -22.906878 } } }, { "name" : "DEAPTI - Delegacia Especial de Atendimento a Pessoas da Terceira Idade", "description" : { "text" : "Telefone:2232-1262" }, "geoResult" : { "address" : "Rua da Relacao, 42 - terreo - Centro", "point" : { "lng" : -43.184423, "lat" : -22.910271 } } }, { "name" : "DEAT - Delegacia de Atendimento ao Turista", "description" : { "text" : "Telefone:2399-7170 \/ 2511-5767 \/ 2511-5881" }, "geoResult" : { "address" : "Avenida Afranio de Mello Franco, s\/n - Leblon", "point" : { "lng" : -43.218389, "lat" : -22.981728 } } }, { "name" : "DPCA - Delegacia de Protecao a Crianca e ao Adolescente", "description" : { "text" : "Telefone:2399--3680" }, "geoResult" : { "address" : "Rua Benedito Hipolito, 163 \/ 2\u00ba andar - Cidade Nova", "point" : { "lng" : -43.198884, "lat" : -22.908926 } } }, { "name" : "DRCI - Delegacia de Repressao aos Crimes de Informatica", "description" : { "text" : "Telefone:3399-3201 \/ 3399-3202" }, "geoResult" : { "address" : "Rua da Relacao, 42 \/ 8\u00ba andar - Centro", "point" : { "lng" : -43.184324, "lat" : -22.91029 } } }, { "name" : "DRE - Delegacia de Repressao a Entorpecentes", "description" : { "text" : "Telefone:2399-3291" }, "geoResult" : { "address" : "Avenida Suburbana, 6.860 - Piedade", "point" : { "lng" : -43.295226, "lat" : -22.88189 } } }, { "name" : "DRFC - Delegacia de Roubos e Furtos de Cargas", "description" : { "text" : "Telefone:2399-3800 \/ 2474-2441" }, "geoResult" : { "address" : "Praca Alencastro Guimaraes, 86 - Pavuna", "point" : { "lng" : -43.354786, "lat" : -22.817084 } } }, { "name" : "DRFVAT - Delegacia de Roubos e Furtos de Veiculos", "description" : { "text" : "Telefone:2399-3638" }, "geoResult" : { "address" : "Rua Celio Nascimento, 33 - Benfica", "point" : { "lng" : -43.236015, "lat" : -22.888922 } } }, { "name" : "DSD - Delegacia Supervisora de Dia", "description" : { "text" : "Telefone:2399-3024" }, "geoResult" : { "address" : "Rua da Relacao, 42 - terreo - Centro", "point" : { "lng" : -43.184381, "lat" : -22.910306 } } } ], "searchParameters" : {} }